[{"id":4935,"name":"Sinnemary Carbet","date_verified":"2022-10-10T00:00:00.000Z","description":"Run down old municipal campsite in country area beside river, and near to wetland hiking. Note- maybe this has been repaired? It’s not so bad. ","location":{"latitude":5.29708,"longitude":-53.05212},"category":{"name":"Established Campground"}},{"id":4938,"name":"Boat Ram","date_verified":"2016-06-13T00:00:00.000Z","description":"Parking lot at the end of the road. Option to take boat to Kaw, or visit wetlands by boat (nobody is at the boat ramp, but people will come and go so you can ask them), also a hiking trail goes up the mountain via a path behind the cemetery. ","location":{"latitude":4.50935,"longitude":-52.05322},"category":{"name":"Wild Camping"}},{"id":11774,"name":"Route des Plages RD1 outside Remire-Montjoly","date_verified":"2015-12-19T00:00:00.000Z","description":"Nice and sandy beach with lots of trees. Quiet at night but busy on weekends.","location":{"latitude":4.8911,"longitude":-52.25346},"category":{"name":"Wild Camping"}},{"id":19846,"name":"Quiet spot behind abandoned hotel","date_verified":"2022-09-04T00:00:00.000Z","description":"Quiet spot behind abandoned hotel (and former police headquarters). Shady, but some sun, too. Police came by once a day and private security made its rounds every few hours (checking in with a beacon right by the building, so they do have to pass by). The abandoned and overgrown marina next door (the gate) was actually home to two really nice elderly French sailors preparing their ships to get sailing again. This is all unofficial of course. I sneaked into the tennis courts next door once to take a shower (early evenings when there are few people). No infrastructure. I would not leave the car there alone for too long.","location":{"latitude":5.15882,"longitude":-52.62749},"category":{"name":"Informal Campsite"}},{"id":19847,"name":"Grassy spot off the road across from visitors' centre","date_verified":"2020-01-05T20:31:33.544Z","description":"Level grassy spot a little of the road, about 200m from the beach (where it is no allowed to camp). At night saw several giant leatherback turtles on the beach. Sun and shade, clouds of mosquitoes at and after sunset (impossible to leave the van). Water tap and bathroom across the street at Visitors’ Centre. Shops and internet (at public library) in village about 1km east along the road. Free.","location":{"latitude":5.74435,"longitude":-53.93512},"category":{"name":"Wild Camping"}},{"id":20836,"name":"Crique Société la Forestière","date_verified":"2017-05-07T15:26:55.363Z","description":"Quiet relaxed creekside park, picnic tables etc. immediately adjacent to road but not within view of passing vehicles. Minimal traffic and minimal mosquitos, convenient place to pass the night of visiting the villages along the Maroni","location":{"latitude":5.218935934831592,"longitude":-54.28284737286557},"category":{"name":"Informal Campsite"}},{"id":22555,"name":"Wildcamp N2 near St. Georges","date_verified":"2023-06-07T00:00:00.000Z","description":"Nice place in the forest just off the N2, but invisible from the road. No facilities. Big rigs will have trouble to turn to get out.","location":{"latitude":3.95107,"longitude":-51.8546},"category":{"name":"Wild Camping"}},{"id":22556,"name":"Immigration Office (Police)","date_verified":"2018-06-02T00:00:00.000Z","description":"Citizens of the EU can enter the country without formalities. \nNow the bridge is opem, the offices are now at the end of the bridge on the FG side","location":{"latitude":3.8903089,"longitude":-51.80455},"category":{"name":"Customs and Immigration"}},{"id":22560,"name":"Remire-Montjoly -  Motel du Lac","date_verified":"2016-10-04T00:00:00.000Z","description":"Note: this place is in FRENCH Guiana (not selectable in iOverlander).\r\nStandard motel, no lake visible. We took it because we needed a shower and looked for a safe place near Cayenne. It was expensive and unfriendly. We were not allowed to open the roof of our van or to cook in it. EUR 75 (2 adults, camper)","location":{"latitude":4.92279,"longitude":-52.27624},"category":{"name":"Hotel"}},{"id":22563,"name":"Consulate General of Suriname","date_verified":"2023-08-11T00:00:00.000Z","description":"Opening hours 9:00-14:00. We got our tourist cards here. Needed: passports only, costs €30 per card, waiting time 30 min. \r\n(*27 eur, bank card only, no cash - August 11, 2023) \r\n","location":{"latitude":4.941209,"longitude":-52.333374},"category":{"name":"Consulate / Embassy"}},{"id":22564,"name":"CA2P Insurance Company","date_verified":"2017-04-06T22:18:49.100Z","description":"Quoted €224 for one month car insurance.","location":{"latitude":4.94179,"longitude":-52.33029},"category":{"name":"Vehicle Insurance"}},{"id":22646,"name":"Police Station St. Laurent-du-Maroni","date_verified":"2019-01-02T15:54:33.732Z","description":"This place is in FRENCH Guiana (not selectable in iOverlander). When we arrived at the dock the last ferry of the day had departed. The immigration officer recommended to camp in front of the nearby police station at the beach. When we arrived there he had already called his collegue who stood outside the building to welcome us. We were allowed to use toilet and shower of the police station, but that will totally depend on the office on duty.","location":{"latitude":5.48724,"longitude":-54.04077},"category":{"name":"Informal Campsite"}},{"id":26100,"name":"Nice windy spot at the boat ramp ","date_verified":"2022-11-01T00:00:00.000Z","description":"Nice spot, lot of cool wind at the commune de remire. We ask permission. No problem. ","location":{"latitude":4.85752,"longitude":-52.25664},"category":{"name":"Informal Campsite"}},{"id":26101,"name":"By ferry","date_verified":"2020-01-21T00:00:00.000Z","description":"Very good place for waiting at the ferry quite and safe and cool at night. ","location":{"latitude":3.88644,"longitude":-51.80249},"category":{"name":"Wild Camping"}},{"id":30784,"name":"Saut Maripa","date_verified":"2023-08-06T00:00:00.000Z","description":"Arrived at this place after a boat ride and a short trek with local friends but there is a dirty road that reach this beautiful place. There is a river to fish. Road is good for all vehicles. No cellphone reception.","location":{"latitude":3.80325,"longitude":-51.88609},"category":{"name":"Established Campground"}},{"id":30785,"name":"Cacao","date_verified":"2024-03-23T00:00:00.000Z","description":"Beautiful, quiet at night, almost flat area next to a boat ramp under the trees. You can use the toilets and shower in the building of the post office. restaurants close by.","location":{"latitude":4.57440186292359,"longitude":-52.47334660967111},"category":{"name":"Wild Camping"}},{"id":31019,"name":"Abandoned facilities ","date_verified":"2019-12-22T00:00:00.000Z","description":"Chutes de Fourgassier, abandoned buildings but flat area to park. Hidden from the main road, a few houses at the entrance but very calm at night.\nAccess road is not in good condition but posible without 4WD. Really beautiful and refreshing falls good for a dip","location":{"latitude":4.6256629843307895,"longitude":-52.30976630938454},"category":{"name":"Wild Camping"}},{"id":31358,"name":"Cayenne","date_verified":"2023-09-08T00:00:00.000Z","description":"€1.5, Monday to Saturday 7am to 5pm, Sunday 8am - 12. Big parking lot in front, very busy area on market days.  \r\n\r\nUPDATE. these close at 2pm. Arrive 30 mins before 2pm to be sure they will let you in. ","location":{"latitude":4.93503,"longitude":-52.33528},"category":{"name":"Showers"}},{"id":32663,"name":"Fort Diamant car park ","date_verified":"2023-11-01T00:00:00.000Z","description":"Quiet car park in a nice grassy area. it's open to the road but very little traffic passes. We had a peaceful night. No facilities. Free. ","location":{"latitude":4.870866,"longitude":-52.247958},"category":{"name":"Informal Campsite"}},{"id":32671,"name":"Centre Amérindian Kalawachi","date_verified":"2024-03-29T00:00:00.000Z","description":"Tourist Amerindian village with carbets and basic camping facilities. Close to the highway so traffic noise at day but very calm at night.","location":{"latitude":5.150373727088002,"longitude":-52.69730284814974},"category":{"name":"Established Campground"}},{"id":32869,"name":"Cacao Village ","date_verified":"2024-06-30T00:00:00.000Z","description":"Highly recommend coming here on a sunday morning. There is a great insect \u0026 butterfly museum where the owner takes you around for personal guided tours (in french or english) telling you all about the local wildlife and his 30 years of collecting species in the area, fascinating. There is also a great pottery to visit where two guys do demonstrations, make and sell their own stuff. There is a colorful Laotian market with locally grown fresh fruit, veg and handmade products. Best of all is the fab foodie hall for lunch with vendors serving amazing, authentic asian foods (spring rolls, stir-frys, soups etc) which are cooked there and served fresh.  All this only on Sundays!\r\nThe market is only a souvenir market/shop.","location":{"latitude":4.569917,"longitude":-52.468343},"category":{"name":"Tourist Attraction"}},{"id":33051,"name":"Crique Toussaint","date_verified":"2023-09-16T00:00:00.000Z","description":"Public carbet, picnic tables, and a nice river perfect for a refreshing dip. Parking is next to the road but has very few traffic during day and almost nothing at night. ","location":{"latitude":5.357913421471936,"longitude":-53.00418158998061},"category":{"name":"Informal Campsite"}},{"id":33300,"name":"Crique Canceler","date_verified":"2023-11-28T00:00:00.000Z","description":"Run down carbets in an awesome location next to a river ok for swiming. Picnic tables, flat area to park. A lot of birds at morning and mosquitoes by night.","location":{"latitude":5.429825205360939,"longitude":-53.037865944256104},"category":{"name":"Established Campground"}},{"id":33495,"name":"Public toilets with showers","date_verified":"2024-03-28T00:00:00.000Z","description":"Toilets open Saturday - Sunday only. Outside open showers available everyday. Free.","location":{"latitude":5.74587,"longitude":-53.94317},"category":{"name":"Showers"}},{"id":33900,"name":"Isles du Salut","date_verified":"2023-06-05T00:00:00.000Z","description":"Nice day out from Kourou \u0026 interesting. Lots of wildlife as well as the old buildings and history. Boat leaves Kourou at 08:30 (check-in 07:45 - departure location is on OSM) \u0026 returns to mainland at 16:30hrs. Sailing time 70 mins. We found a day trip was plenty of time, but there is an Auberge on the island if you want to stay over. Does nice food but bit pricey; most families seemed to take big cool-boxes and picnics.  Also there is an area near the 'piscine' for pitching small tents (or hanging a hammock between trees) which I think is free. It's a very pretty spot to stay-over, but poor camping facilities (no fresh water, just hole-in-the-ground toilets). \r\nMuseum has English displays. Normally there should be a guided tour (in French only) but not on the day we went. \r\nRecommend watching Papillon movie before you go; puts it all into context, but it it clearly not where it was filmed. \r\nBoat price is  €42 per person return fare (kids cheaper) which includes entrance to the island etc.","location":{"latitude":5.28756,"longitude":-52.58786},"category":{"name":"Tourist Attraction"}},{"id":33901,"name":"Port for Isles du Salut ","date_verified":"2024-07-02T00:00:00.000Z","description":"Safe to leave your vehicle here for the day to take a trip to the islands, but we were warned it's not safe overnight around here. \r\nTickets can be bought here before sailing at 7 o clock. Best to book online in advance http://www.promaritimeguyane.fr\r\nCheck-in 07:45, boat leaves 08:30 hrs daily. Return 16:30hrs. Sailing time around 70 mins.","location":{"latitude":5.14951,"longitude":-52.64323},"category":{"name":"Tourist Attraction"}},{"id":33959,"name":"Plage de Simili","date_verified":"2020-01-03T00:00:00.000Z","description":"People at info center confirmed: camping at the beach is forbidden ... but ... if you take care of your trash, use the public toilets and in turtle season keep lights and sounds to the minimum overnight parking is OK. \nPicnic area with tables and constant breeze, so almost no mosquitoes.\nTo see turtles continue on the road 1.5km extra, you can stay overnight there too but here is quieter.","location":{"latitude":5.74611,"longitude":-53.93395},"category":{"name":"Informal Campsite"}},{"id":33960,"name":"Kourou Laverie","date_verified":"2020-01-17T00:00:00.000Z","description":"Laundromat: 7kg = €7 // 14kg = €10 // dryer = €2 . big parking lot in front. Monday to Sunday 7am to 8pm","location":{"latitude":5.163226705049317,"longitude":-52.641337048311385},"category":{"name":"Laundromat"}},{"id":34291,"name":"Golf club parking area","date_verified":"2018-12-21T00:00:00.000Z","description":"very peaceful abd quiet. friendly staff at the golf club said it is very safe. Minor drawback: as it's between trees it doesn't get much breeze and can be a bit airless in the heat at night (contrast with down by the hotels at the ocean-side where it's a bit  busier but breezier and cooler). no facilities. free.","location":{"latitude":5.175427,"longitude":-52.682248},"category":{"name":"Informal Campsite"}},{"id":34366,"name":"kanawa trail car park","date_verified":"2017-05-01T00:00:00.000Z","description":"tiny dirt track to small car park hidden behind the trees. level ground. very peaceful and nicer than the busy spots down nearer to the beach (many visitors in turtle season). big rigs might find access a bit tight but most will fit with a bit of care. no facilities. free. ","location":{"latitude":5.72691633,"longitude":-53.89163229},"category":{"name":"Wild Camping"}},{"id":34367,"name":"Crique Patate","date_verified":"2020-01-22T00:00:00.000Z","description":"Marker is where the track leaves the main road. Follow the dirt road 1km ish to the river. Track is a bit rough and very muddy after rains. 4x4/high clearance is ideal but we saw small cars making it through with a bit of difficulty.   Beautiful site next to a lovely river for swimming. Sadly partygoers had left a lot of rubbish there when we went back the second time, but hopefully if it is cleaned up again it will be very much worth a visit for a day-trip or night-stop. Free.","location":{"latitude":4.947521,"longitude":-52.488344},"category":{"name":"Informal Campsite"}},{"id":34368,"name":"CA2P Insurance Office","date_verified":"2018-11-20T23:33:53.878Z","description":"we didn't actually use this office as we arrived from Brazil and got our insurance in Cayenne, but CA2P was the only firm in French Guiana (and we went to every insurance office that we could find!) that would insure an EU (non-French) reg'd vehicle. Non-EU vehicles will have more choice, but if you are arriving from Suriname with an EU vehicle, this is probably your only option. Price varies hugely depending on your vehicle, but it's expensive whatever you have. See notes in the CA2P entry for Cayenne.","location":{"latitude":5.498466666666666,"longitude":-54.030683333333336},"category":{"name":"Vehicle Insurance"}},{"id":34732,"name":"Laundrette","date_verified":"2017-05-08T19:16:15.737Z","description":"self-service laundrette. good quality machines. 7kg load €6 wash.  Drier €2 per 12 mins.","location":{"latitude":4.94078,"longitude":-52.33085},"category":{"name":"Laundromat"}},{"id":34857,"name":"Pk74,5 carbet daaf ","date_verified":"2023-11-13T00:00:00.000Z","description":"One carbet with creek and natural bath ","location":{"latitude":4.44504,"longitude":-52.338048},"category":{"name":"Informal Campsite"}},{"id":42699,"name":"View Point enroute to Cacao coming from the south","date_verified":"2017-09-10T23:30:04.931Z","description":"great spot lovely breeze. next to small restaurant. closed when we stayed here.","location":{"latitude":4.579016666666667,"longitude":-52.43456666666667},"category":{"name":"Wild Camping"}},{"id":44386,"name":"Oficina de correos de Cacao","date_verified":"2023-11-26T00:00:00.000Z","description":"On the sides of the post office is possible to hang your hammock or build your tent at night, in the back there are toilets and free public shower in good condition, about a hundred meters away from the river and it is a very quiet place to rest, next to the soccer field there is a small roof","location":{"latitude":4.5736937,"longitude":-52.4726838},"category":{"name":"Wild Camping"}},{"id":45725,"name":"Border St.Laurent coming from Suriname","date_verified":"2024-06-30T00:00:00.000Z","description":"Just a new passport stamp. They didn‘t ask because TIP or insurance - I didn‘t use my wrong self-made Green Card. Too nice!","location":{"latitude":5.49302,"longitude":-54.03558},"category":{"name":"Customs and Immigration"}},{"id":48201,"name":"La Villa du Bois Chaudat","date_verified":"2020-01-15T00:00:00.000Z","description":"Nice private villa with 3 studios as rental units. Very clean rooms, many small details which you normally miss in such places. Françoise is your amiable host and her service is excellent as are her tips. We felt immediately at home. We paid 70 EUR per night which compared to hotel rates is very reasonable. Secure parking for 2 Motorcycles. ","location":{"latitude":5.1601,"longitude":-52.64783},"category":{"name":"Hotel"}},{"id":48404,"name":"Consulat Suriname","date_verified":"2023-12-05T00:00:00.000Z","description":"UPDATE- all visas and tourist cards are now done online for Suriname.  \r\nCheck in here for Visa or Tourist Card if crossing boarder into Suriname. Visa needs 1 week via Cayenne, if you can provide a return ticket it will be issued the same day. If you don’t need a visa (eg German and most other European citizens) you must buy your tourist card here (NOT in Suriname). It costs 32 Euro and you’ll get it immediately. Have your passport, yellow fever cert. and credit card ready, they don’t accept cash. Our tc is valid for 90 days. The 14h ferry is in reach. ","location":{"latitude":5.4978,"longitude":-54.03121},"category":{"name":"Customs and Immigration"}},{"id":52558,"name":"bred guyane banque populaire","date_verified":"2020-01-02T00:00:00.000Z","description":"international cashier machine MasterCard and visa","location":{"latitude":5.50069,"longitude":-54.02887},"category":{"name":"Financial"}},{"id":56560,"name":"Maison de la Nature","date_verified":"2022-11-02T00:00:00.000Z","description":"Got in after closing, had nobody to ask for permission so I set my tent on the platform in the back of the building. This is the nature center of a regional park with a few interesting trails. Parked my motorcycle close to the platform too. Restrooms were closed but a sink with non potable water available. Electric plugs work. Morning note: this place is temporary closed and given another chance, I would set up the tent on top platform of the observation tower for more breeze and less mosquitos.","location":{"latitude":5.4177,"longitude":-53.04369666666666},"category":{"name":"Informal Campsite"}},{"id":68820,"name":"Satellite launch view point ","date_verified":"2024-03-30T00:00:00.000Z","description":"There is a platform set up here to watch the launches from the space center. Wonderfull view, quiet on the hill. But the fence will only be open on week days till 9 pm.","location":{"latitude":5.162990643951841,"longitude":-52.67949241430332},"category":{"name":"Informal Campsite"}},{"id":72476,"name":"Trailhead to Savane-Roche Virginie","date_verified":"2023-11-10T00:00:00.000Z","description":"Dirt parking lot next to the road under trees just a few meters to the left from the trailhead to Inselberg Savane-Roche Virginie national reserve.","location":{"latitude":4.1840333724433405,"longitude":-52.135493131403},"category":{"name":"Wild Camping"}},{"id":72551,"name":"Reserve Naturelle Kaw Roura","date_verified":"2019-08-21T00:00:00.000Z","description":"We took a 5 hour boat ride along the Kaw river for €40 per person and stopped at the small village of Kaw for lunch (included with the price) and check the visitor center. We saw several different birds, capybaras and caiman. ","location":{"latitude":4.487633333333333,"longitude":-52.03709999999999},"category":{"name":"Tourist Attraction"}},{"id":72850,"name":"Crique Morpio- Free","date_verified":"2024-02-11T23:08:28.000Z","description":"Neat picnic / campground by the side of the road next to a creek. Covered tables, leveled shaded spots. Great place to camp. Quiet at night. Free. ","location":{"latitude":5.490053161052512,"longitude":-53.30400218260782},"category":{"name":"Established Campground"}},{"id":76749,"name":"Big parking near main road","date_verified":"2023-11-10T00:00:00.000Z","description":"They have a big area for parking near the main road. It's quiet on the night. You can wash in the river but it's little bit yellow color. ","location":{"latitude":4.1408978,"longitude":-52.0861986},"category":{"name":"Wild Camping"}},{"id":78176,"name":"Le Batwél","date_verified":"2018-12-08T00:00:00.000Z","description":"Very fast and good quality. \r\n7 kg 5,50\r\n14kg 9,00\r\n20 kg 14,00","location":{"latitude":4.887032643896422,"longitude":-52.27698954758446},"category":{"name":"Laundromat"}},{"id":78811,"name":"CMA-CGM sonstig","date_verified":"2022-07-17T00:00:00.000Z","description":"Shipping Company which works very fast, professional and cheap. \r\nThe process to bring the car in the 20ft-Container was done in around 2 hours. Inclusive custom which is about 100 m around the corner. \r\n\r\nShipping Time to Panama 13 days, to Mexico 27 days.\r\n\r\nWe shipped to Panama and payed inclusive the Harbour Fee 1.250 EUR.","location":{"latitude":4.855727157560042,"longitude":-52.27214220916132},"category":{"name":"Vehicle Shipping"}},{"id":79114,"name":"Sentier Botanique de la Montagne Tresor","date_verified":"2022-11-07T00:00:00.000Z","description":"Very nice walk through the forest with good informations. There are several info postes about Fauna and Flora. Length 1.7 km. Some muddy parts after heavy rain. Lots of birds and butterflys and we saw some strange frogs. \r\nYou can camp at the parking lot - hight 231 meters - it is cooler and perfect for sleeping.","location":{"latitude":4.610462550578327,"longitude":-52.27891617494178},"category":{"name":"Tourist Attraction"}},{"id":79115,"name":"Camp at the river","date_verified":"2018-12-18T00:00:00.000Z","description":"Spot at the river on paved ground of a small boat launch next to the bridge. Not hidden from road but safe and quiet at night. Clean!. Swimming not allowed. No infrastructure. ","location":{"latitude":4.742166104612389,"longitude":-52.32707118244973},"category":{"name":"Wild Camping"}},{"id":79316,"name":"Toyota N.C.C.I.E.","date_verified":"2023-09-12T00:00:00.000Z","description":"Good Toyota Dealer and Service Department. They had Original Diesel- and Oil- Filter, as well as Air-Filter for our Toyota HZJ 78 (we could not find these parts in the whole of Brasil.)\r\nThey squeezed us in to change filters. (It was shortly before Christmas). We could wait in the lounge (free WiFi, strong connection) Recommended. ","location":{"latitude":4.93209,"longitude":-52.308292},"category":{"name":"Mechanic and Parts"}},{"id":79351,"name":"Insurance/Customs ","date_verified":"2023-12-01T00:00:00.000Z","description":"We paid €175 for one month. Also you can pay credit card. Only need to this insurance to enter your vehicle ( if you are not EU) ","location":{"latitude":3.859088,"longitude":-51.826084},"category":{"name":"Vehicle Insurance"}},{"id":79458,"name":"Le Glacier Bourg","date_verified":"2022-10-06T00:00:00.000Z","description":"Very good ice cream! Try the banana/passion fruit ice cream - the best I ever had!!! And I eat a lot of ice cream...\r\nParking in front. On Saturday morning (and on Friday) there is a Vegi/Fruit market next door and a patisserie. ","location":{"latitude":5.15454587635436,"longitude":-52.64290655687357},"category":{"name":"Restaurant"}},{"id":79460,"name":"Parking at Dreyfus-Tower","date_verified":"2024-03-27T00:00:00.000Z","description":"We camped on the parking lot (public) in front of the Hotel des Roches. Shade from trees, some breeze from the sea, a lot of people walking around and enjoying the spot but quiet also at night, safe (the Police do their rounds by car but did not bother us), WiFi available without  PW near the entrance.\r\n","location":{"latitude":5.159433,"longitude":-52.62718},"category":{"name":"Informal Campsite"}},{"id":79792,"name":"Parking Lot. Public Swimming Pool","date_verified":"2024-04-02T00:00:00.000Z","description":"Paved and clean parking at the river, well lit and safe during night (patrols of Gendarmerie), some cars during night. Toilets and showers during opening hours (until 18.15) of swim hall when you pay entry.  It is a OK place for a night before taking the 1st ferry at 7am to Surinam. (Free)","location":{"latitude":5.506163,"longitude":-54.030058},"category":{"name":"Informal Campsite"}},{"id":79793,"name":"French Guyana to Surinam ferry","date_verified":"2024-01-29T00:00:00.000Z","description":"Small ferry port directly behind border post. Be there early as lines form quickly and it is a very smal ferry (8-9 cars - depending on size). The ferry runs Mo+Tues+ Thurs at 7am, 9am, 14pm and 17pm, Wednesday only in the morning at 7am, 8am and 9am, Fr at 7am, 8am, 9am, 15pm, 16pm, 17pm; Saturday on 8am, 9am, 15pm, 16pm and on Sunday only in the afternoon at 15pm, 16pm, 17pm. \r\nPrice for car + driver Euro 36, Passenger Euro 4.30, Moto Euro 16\r\n\r\nCheck the weekly schedule online as it changes every week. ","location":{"latitude":5.493068614940153,"longitude":-54.036404103869806},"category":{"name":"Vehicle Shipping"}},{"id":105711,"name":"Le Balisier","date_verified":"2024-06-28T00:00:00.000Z","description":"A good place to stop if you want camping with facilities although not cheap €15pppn (welcome to French Guyana).  For that you get a hammock in a large open shelter, showers, toilets and a shaded place to bathe and cool off in the river.  surrounded by nature. A lovely spot and very friendly.   Signposting from the main road visible from Cayenne direction only. ","location":{"latitude":4.51454727910459,"longitude":-52.365662874653935},"category":{"name":"Established Campground"}},{"id":105723,"name":"Saut Maripa Hiking Trail","date_verified":"2023-08-07T00:00:00.000Z","description":"Beautiful hiking trail through the forest and along the river. Not always well marked, but no guide needed. 1.5 hours or 4.5 hours versions. Well worth doing.","location":{"latitude":3.8040957676346143,"longitude":-51.88733834290132},"category":{"name":"Tourist Attraction"}},{"id":105724,"name":"Camping Touristic Land Mangrove","date_verified":"2019-08-21T00:00:00.000Z","description":"Large resort for locals to relax on a lake. We were desperate and stayed here for a night. We were alone but I presume it could become very busy over weekends etc as the site can take many people. Pricey for what you get. E15 per person per night. Suggest you phone first 06 94 255112. ","location":{"latitude":4.939951970476268,"longitude":-52.48192307374318},"category":{"name":"Informal Campsite"}},{"id":105725,"name":"Satelite Visitors Centre and Museum","date_verified":"2024-06-30T00:00:00.000Z","description":"This is the place for visiting the satelite launch facilities and museum. Book in advance for a  site visit but the museum is open at E7 per person.","location":{"latitude":5.168496070857674,"longitude":-52.68344575855407},"category":{"name":"Tourist Attraction"}},{"id":106275,"name":"Montagne des Singes (Monkey Mountain)","date_verified":"2022-11-04T00:00:00.000Z","description":"This marks the start of two trails: a 3.9km circuit route that is estimated to take 3 hours and which is the main walk to see monkies; and a shorter but interesting 650m botanical walk through the forest.  Picture shows map.  We just did the shorter walk. Seemed further and was beautiful. ","location":{"latitude":5.071539455093443,"longitude":-52.69286748021841},"category":{"name":"Tourist Attraction"}},{"id":106424,"name":" Molokai Trail","date_verified":"2024-03-22T00:00:00.000Z","description":"The Molokai Trail starts about 600m from here and is a 17km trail through Guyana forest, with a carbet after 6,5 km en route to overnight. It is amazing. With small rivers to cross and to refresh.\r\n","location":{"latitude":4.561606761999428,"longitude":-52.46269203722477},"category":{"name":"Tourist Attraction"}},{"id":106533,"name":"Kayak rental; Maripas","date_verified":"2019-08-27T00:00:00.000Z","description":"A beautiful location on the river, which is the only place to rent kayak. 12€ for half day/€20 full day for a 2 man kayak, €15/€25 for a 3 man kayak. If you want to paddle in a quiet section of the Kourou river this is the place.  Very busy at weekends so call ahead and reserve 0594 32 08 37. campmaripas@gmail.com and www.campmaripas.com Felipe is the owner, David the manager. They are super friendly. They offer hammock spaces (carbet) for €15 per night and also offer day trip and overnight stays deeper into the jungle - Camp Cariacou (€79-150 pp)  copy of brochure included in the photos.  ","location":{"latitude":5.043730437755585,"longitude":-52.68986566923559},"category":{"name":"Tourist Attraction"}},{"id":106534,"name":"Degrad Saramaca","date_verified":"2022-09-12T00:00:00.000Z","description":"At the end of this road there is a boat ramp and a car park where you can wildcamp, next to the river Kourou. It's a beautiful place where you can swim or just sit and watch the world go by. Lots birds and if you're lucky, monkies. There is also a shelter where you could string a hammock. ","location":{"latitude":5.014885333366692,"longitude":-52.69907830283046},"category":{"name":"Wild Camping"}},{"id":108250,"name":"Crystal Laverie","date_verified":"2024-03-24T00:00:00.000Z","description":"Open every day.  You can pay cash or card and its €6 for 7kg, €8 for 9kg and €10 for 14kg, €2 to dry. The machines offer 90/60/40/30 degree washes \r\n (select before you pay). The wash takes about 40 mins. Self-service. ","location":{"latitude":4.936266666666667,"longitude":-52.329283333333336},"category":{"name":"Laundromat"}},{"id":108251,"name":"Petit Saigon","date_verified":"2019-09-06T00:00:00.000Z","description":"Small popular market restaurant. Grab a seat and enjoy some Vietnamese food. ","location":{"latitude":4.936116853682771,"longitude":-52.335156536267746},"category":{"name":"Restaurant"}},{"id":114273,"name":"Auberge des Orpailleurs (abandoned)","date_verified":"2022-08-26T00:00:00.000Z","description":"An abandoned Inn (Auberge) with two carbets: one medium and another large. The Inn is not in use anymore and offers an excellent location for a hammock (or a tent). There was a very small tap that still worked, but a day later it was dry. Next to river (but difficult to reach). Close to road but not disturbingly close and Light traffic","location":{"latitude":4.511895,"longitude":-52.351145},"category":{"name":"Informal Campsite"}},{"id":121123,"name":"Plage de Hattes ","date_verified":"2024-04-01T00:00:00.000Z","description":"At the end of the road is a parking and turnaround area. There are picnic tables with covers, palm trees which are a perfect hammock distance apart, sand, benches and trash cans. Also an old building from the prison era.  \r\nVery few mosquitoes. Parked here for three nights. Locals were friendly. Nearby is a little store and a restaurant (in season). ","location":{"latitude":5.7460633479112255,"longitude":-53.945451043596435},"category":{"name":"Wild Camping"}},{"id":121240,"name":"Laverie","date_verified":"2022-10-30T00:00:00.000Z","description":"Automated, do it yourself laundry place.  Push buttons, insert euros, machines begin.  Dryer is hot and fast. Parking in front or back for any size rig. Open 7am to 7pm. ","location":{"latitude":5.4947381001017,"longitude":-54.03060439047779},"category":{"name":"Laundromat"}},{"id":121292,"name":"Tourist Office/ Friends of Nereids Marina","date_verified":"2023-09-18T00:00:00.000Z","description":"This building is the location of the\r\nTourist Office for local info, maps and bike rental with a loop of sights to see. \r\nAt the end of the building is a cafe/marina service with bookings for tourist trips, laundry, beer and a very friendly staff. David (owner) invited us to park under his surveillance camera (under the mango tree) and use his WiFi all night. He even offered water! He welcomes other Overlanders and boaters. City park with playground and major tourist attraction just steps away.  ","location":{"latitude":5.505438982514204,"longitude":-54.03184055355753},"category":{"name":"Informal Campsite"}},{"id":121402,"name":"Saint Joseph Church","date_verified":"2020-01-08T00:00:00.000Z","description":"Push the doors, it is open. Amazing hand painted walls and ceilings. Interesting altar and organ. Make a little donation.  \r\nParking in lot of tourist info (not open when we came). Toilets and trash cans available. \r\nCould park here overnight. Check for farmers market at public park just past the grocery stores.","location":{"latitude":5.479278727439678,"longitude":-53.20677311164626},"category":{"name":"Tourist Attraction"}},{"id":121407,"name":"Police checkpoint","date_verified":"2020-01-08T00:00:00.000Z","description":"Very friendly and curious police checkpoint.  They will make a copy of foreign passport. They all came out to look inside the camper. \r\n","location":{"latitude":5.47993767075751,"longitude":-53.20313444366045},"category":{"name":"Checkpoint"}},{"id":121522,"name":"Barrage de Petit Saut ( Sinnemary Dam)","date_verified":"2023-09-16T00:00:00.000Z","description":"Parking on a public launch and swimming area at the base of the dam.  Grassy, limited shade, few bugs.  We even had a deer wander through camp.  There are many parking and picnic areas shown on maps.me around here but all are gated or blocked off.  There appears to be two public launch areas.  This one is below the dam on the river. The other is above the dam on the lake. At the other ramp we saw secure parking and a bar/restaurant, but we did not investigate.  This one is free, peaceful and no services.  River flow changes as spillway opens. Parking is safely away from rivers edge. ","location":{"latitude":5.067133926791201,"longitude":-53.05134915751689},"category":{"name":"Wild Camping"}},{"id":121982,"name":"Museum of Guyane","date_verified":"2020-01-13T00:00:00.000Z","description":"This is a small museum with several rooms of various focus. Stuffed birds and animals, history, anthropology and a little art. Highlight is the air conditioned bug collection room (don’t miss it, the doors are closed). Paid 3€ per person. Check for open days and hours.","location":{"latitude":4.938153745611141,"longitude":-52.334276922095874},"category":{"name":"Tourist Attraction"}},{"id":123013,"name":"Clinique Veterinaire de Montjoly","date_verified":"2020-01-22T00:00:00.000Z","description":"Veterinary clinic with walk in service. Also did exit paperwork for dogs.  Just $13,00euros per dog. Then take form to National Vet downtown.   Also sells pet supplies and special food at attached Espace Canin.   Note- check her work. She missed some dates and numbers which were caught by the National Vet at the Ministry of Agriculture (DAAF)","location":{"latitude":4.918143167165032,"longitude":-52.2770462092499},"category":{"name":"Pet Services"}},{"id":123180,"name":"Garage de la Madeleine ","date_verified":"2020-01-24T00:00:00.000Z","description":"Garage Bosh sérieux. Nous a fait un diagnostique pour notre VW T4. Malheureusement les pièces n’existent pas en Guyane pour ce genre de véhicule. Nous conseillons fortement ce garagiste pour son travail. ","location":{"latitude":4.930807788192346,"longitude":-52.32733352172847},"category":{"name":"Mechanic and Parts"}},{"id":123353,"name":"Crique (creek) d'Organabo","date_verified":"2022-07-17T00:00:00.000Z","description":"Nice place 200 m from the main street, very quiet, with creek to jump in. There is place to camp beside the river.","location":{"latitude":5.54892687501776,"longitude":-53.46941315054964},"category":{"name":"Wild Camping"}},{"id":125035,"name":"Touloulou ","date_verified":"2024-03-26T00:00:00.000Z","description":"You can stay here with your camper or use the cabin. really nice place to relax in the garden and well situated between Korou and Cayenne. a lot of things to do around here and a bus stop is nearby. ","location":{"latitude":5.00068,"longitude":-52.47298},"category":{"name":"Established Campground"}},{"id":127618,"name":"Saint Eli's Carbet","date_verified":"2020-02-22T00:00:00.000Z","description":"a nice camp just near the road, but very quiet all night, where you can put 4 hammocks. It's located at the end of saint Eli's hike. no amenities, but a place to make fire.","location":{"latitude":5.2944499,"longitude":-53.05190946},"category":{"name":"Established Campground"}},{"id":127619,"name":"crique macouria","date_verified":"2022-10-20T00:00:00.000Z","description":"nice little campsite, with natural and clear water, and a little carbet house with a table. there is place on the road to stop one or two cars. the place is quiet during the night (no many cars). no facilities.","location":{"latitude":4.98797908,"longitude":-52.59499752},"category":{"name":"Wild Camping"}},{"id":128526,"name":"montsinéry's river campsite","date_verified":"2020-03-13T00:00:00.000Z","description":"a nice and sunny place, where you can put many tents and/or some hammocks. there is salt water, with an access when the water is high. no facilities. cars can't go on the site (I think the 4x4 can), but there is a place on the begining of the durt road you can let your car and continue by feet. there is no wifi, but there is web and phone connections. you can hear many animals during the night, but it's safe (of course, don't keep any food with you when you sleep!)","location":{"latitude":4.89440619,"longitude":-52.4562341},"category":{"name":"Wild Camping"}},{"id":129242,"name":"crique tatou","date_verified":"2024-03-22T00:00:00.000Z","description":"a beautiful campsite on the Paul Isnard road (a mud road a little difficult with an usual car, but possible when it's not raining). the site is in the forest, but there is many place to put tents or hammocks. there is almost clear running water with beautiful little falls. there is 3 carbets with tables. you can let your car just near the spot. there isn't many users on the road, si it's quiet during the week (I heared 2 cars during the night and one in the morning)","location":{"latitude":5.29461165,"longitude":-53.96503641},"category":{"name":"Wild Camping"}},{"id":158019,"name":"Fireplace Carbet Arouba nord","date_verified":"2021-08-22T00:00:00.000Z","description":"Nice spot where you can set your Hammock. it is a proper Carbet with chairs, tables, roof and even a FIREPLACE.\r\nWith a low tide there is a amazing beach in front.\r\n\r\nTake care in high tide, the entrance is hidden and narrow. \r\n***bring repellent against moustiques!","location":{"latitude":5.61529695,"longitude":-54.01273873},"category":{"name":"Wild Camping"}},{"id":175145,"name":"Emile","date_verified":"2022-05-06T00:00:00.000Z","description":"Get off the main road on a dirt road that ends at Emile’s place. The place looks chaotic with cars and parts but Emile is a good mechanic. He helped me fixing my landcruiser. ","location":{"latitude":4.81138,"longitude":-52.34713},"category":{"name":"Mechanic and Parts"}},{"id":191630,"name":"Boulangerie Robert ","date_verified":"2022-09-12T00:00:00.000Z","description":"Bakery with bad bread but decent wifi. There is a parking for your car and you can use the toilets of the marina in front, and take water from it. The bakery is the office of the sailing people to take bread and wifi so you might meet nice people. ","location":{"latitude":5.149733590215099,"longitude":-52.644058279211954},"category":{"name":"Wifi"}},{"id":193688,"name":"Nice spot for stay at night at the beginning of Rorota trail ","date_verified":"2022-09-28T00:00:00.000Z","description":"There is a trail to go to the trail of rorota. You can park there to stay the night. Nice clean and clear river, bamboo that protect you from the sun all day, monkey observable. Busy at sunset and during weekend. There is also a fountain of potable water close from the water station and on the trail. To get there the easier is to walk along the fence of the station ","location":{"latitude":4.884180821407804,"longitude":-52.262520790100105},"category":{"name":"Wild Camping"}},{"id":194363,"name":"CA ATM","date_verified":"2023-10-01T00:00:00.000Z","description":"Easy accessible ATM with parking in front. Didn't charge any fees. ","location":{"latitude":5.50265,"longitude":-54.02873},"category":{"name":"Financial"}},{"id":194364,"name":"Chutes Voltaire - Waterfall hike","date_verified":"2023-09-18T00:00:00.000Z","description":"Here starts a hike (3km oneway) through a beautiful stretch of rainforest to the waterfall cascades Chute Voltaire, which are great for a refreshing bath. You can hike even further to the mountain Voltaire (9km from parking oneway), which we didn't do. There also places to put a hammock if you wanna camp in the rainforest. We camped at the parking lot. The lodge next to it was closed and there was no one around so we were completely alone for the 2 days. The trail is very good maintained although there are no people, but the road to come here needs high clearance and if wet 4x4 as well. Great place! ","location":{"latitude":5.05276246,"longitude":-54.08779429},"category":{"name":"Tourist Attraction"}},{"id":197710,"name":"Carapa Site Preamerindian site","date_verified":"2022-11-04T00:00:00.000Z","description":"Amerindian site of Calapa with art rupestre on rock. Little museum with  explanation in French but really interesting. Worth a stop after CSG. Few days open in week, but she let us enter even if it was closed. ","location":{"latitude":5.1590226126667815,"longitude":-52.66552765902946},"category":{"name":"Tourist Attraction"}},{"id":197819,"name":"Showers in Beach Cocoteraie","date_verified":"2022-11-05T00:00:00.000Z","description":"Here you can find nice long beach with like 10 free outside shower, barbecue and other facilities to hang on your hammock. Really nice place ","location":{"latitude":5.166706,"longitude":-52.638024},"category":{"name":"Showers"}},{"id":198576,"name":"Bivouac","date_verified":"2022-11-06T00:00:00.000Z","description":"Wild area set back from the RN2 Large location\r\n---\r\nAire sauvage en retrait de la RN2 Grand emplacement ","location":{"latitude":4.102641666666667,"longitude":-52.04978500000001},"category":{"name":"Wild Camping"}},{"id":200336,"name":"Résidence Vero","date_verified":"2022-10-15T00:00:00.000Z","description":"-rental of small studio kitchen bathroom.\r\n\r\n\r\nocation de petit studio cuisine salle de bains. ","location":{"latitude":45.14541666666667,"longitude":5.704083333333333},"category":{"name":"Hotel"}},{"id":205192,"name":"Camping at Sentiero Sur Sables Blancs","date_verified":"2023-01-13T00:00:00.000Z","description":"Big flat grassy place. Located on D8 Highway, 2,5 km from the N1.\r\nShade and quiet. Here is a National Park and you can make some trails trekking. Lots of birds.\r\nWe camped here with our roof tent. ","location":{"latitude":5.533477158968287,"longitude":-53.56574004631375},"category":{"name":"Wild Camping"}},{"id":215013,"name":"Bief Rapids ","date_verified":"2023-09-10T00:00:00.000Z","description":"Small place with access to the river Comté and small rapids. People come here to swim in the river. \r\nA bad dirt road leads to this place, Google largely misleading, the maps being outdated and/or very imprecise.\r\nThe dirt road starts at the old market of Cacao, passing the petrol station. ","location":{"latitude":4.55323,"longitude":-52.49774},"category":{"name":"Tourist Attraction"}},{"id":223276,"name":"Estacionamento ","date_verified":"2023-06-03T00:00:00.000Z","description":"Ample parking space close to restaurants, and safe\r\n---\r\nLugar amplo pra estacionamento próximo a restaurantes, e seguro ","location":{"latitude":5.16489,"longitude":-52.63917},"category":{"name":"Informal Campsite"}},{"id":223285,"name":"GL Motors","date_verified":"2023-06-03T00:00:00.000Z","description":"Small motorbike mechanic working on big bikes (working out of a sea can). Contact Anthony via WhatsApp at +594 694 24 82 34. I just needed a new tire for my 1200 GSA and he had one in stock and took care of me right away. ","location":{"latitude":4.92337,"longitude":-52.28231},"category":{"name":"Mechanic and Parts"}},{"id":223559,"name":"Macouria  Beira Estrada","date_verified":"2023-06-05T00:00:00.000Z","description":"We stopped here to make lunch under the trees and decided to spend the night here.  It is on the side of the road, no amenities, but pleasant due to the trees. Easy access.\r\n....\r\nParamos aqui para fazer almoço sob as árvores e resolvemos passar a noite aqui.  É na beira da estrada sem nenhuma infraestrutura mas agradável devido as árvores, sobra e fácil acesso. ","location":{"latitude":5.01122,"longitude":-52.46986},"category":{"name":"Wild Camping"}},{"id":223808,"name":"Riverside. Route de l'Est","date_verified":"2024-06-30T00:00:00.000Z","description":"Beside the bridge, we stopped here to prepare lunch. a good place to spend the night too.\r\n-------------\r\nlado da ponte, paramos aqui para preparar almoço.  um bom local pra passar a noite também. ","location":{"latitude":3.91258,"longitude":-51.84201},"category":{"name":"Wild Camping"}},{"id":230272,"name":"Hébergement l'Oyamac","date_verified":"2024-06-27T00:00:00.000Z","description":"they do have rooms, but I did the hammock camping for 10 euros the night if you bring your own hammock and 13 without.\r\nsimple facility . I was able to park my motorbike there but, cars would park on the street. overall it seems safe here.","location":{"latitude":3.89042854,"longitude":-51.80134071},"category":{"name":"Hostel"}},{"id":230428,"name":"Ecomusée Municipal d'Approuague-Kaw","date_verified":"2024-01-17T00:00:00.000Z","description":"Local history museum (one Euro entry) and a nice guide who can speak English.\r\n\r\nI highly recommend making a stop here to learn about the local past and development of this place.","location":{"latitude":4.31523605,"longitude":-52.12872691},"category":{"name":"Tourist Attraction"}},{"id":236023,"name":"Carbet Anaoua Bicycles only","date_verified":"2023-08-07T00:00:00.000Z","description":"About 2 hrs hike from Saut Maripa, a roof with holes  but solid enough to put a hammock up.\r\nThere is space for tents  as well and access to the Oyapock. ","location":{"latitude":3.7918058887735837,"longitude":-51.911410437327035},"category":{"name":"Informal Campsite"}},{"id":238670,"name":"WiFi tourist Info / place Baudin","date_verified":"2023-08-27T00:00:00.000Z","description":"Good connectivity for average broadband speed, open and free.\r\nFrequent interruptions. \r\nI my case an electricity cut made me give up, I'll try later again. \r\n*maybe shut down when Tourist Info closes\r\nBest in town, I think. ","location":{"latitude":5.505215112880034,"longitude":-54.031482847218996},"category":{"name":"Wifi"}},{"id":239288,"name":"Amazonie Accueeil","date_verified":"2023-08-30T00:00:00.000Z","description":"simple place to sleep with your hammock for 14 euros\r\nor for 20 euros to provide you with a hammock and mosquito net\r\n\r\nI've seen they also had a cabin, but I don't know what it is like.\r\n\r\nshowers and toilets are clean and work\r\n\r\nthey have a microwave and plenty of electricity sockets\r\non demand she serves breakfast and other meals\r\n\r\nthere is some space where I parked my motorbike inside the gated area.","location":{"latitude":5.49825,"longitude":-54.03292},"category":{"name":"Established Campground"}},{"id":241306,"name":"DAAF de Guyane","date_verified":"2023-09-12T00:00:00.000Z","description":"This is where you need to go to get your pets health certificate from the vet stamped.\r\nQuick process, costs nothing. ","location":{"latitude":4.93985,"longitude":-52.31885},"category":{"name":"Pet Services"}},{"id":242241,"name":"Police/Military Checkpoint ","date_verified":"2023-09-18T00:00:00.000Z","description":"Police/Military Checkpoint. Just a quick passport check. Friendly officers.\r\nWatch out for the nail chain in the ground. ","location":{"latitude":5.2750888441133865,"longitude":-53.966781802835484},"category":{"name":"Checkpoint"}},{"id":243880,"name":"Post Office","date_verified":"2023-09-28T00:00:00.000Z","description":"The office has 30 minutes free WiFi. You get 30 minutes for different emails","location":{"latitude":4.5737776,"longitude":-52.47225343},"category":{"name":"Wifi"}},{"id":243988,"name":"GL motos","date_verified":"2024-02-08T00:00:00.000Z","description":"Motorcycle dealer, we haven't seen a place so big and furbished in all south America. They sell gears and tyres/parts as well. They speak English and Portuguese other than French, very friendly owners","location":{"latitude":4.91839036,"longitude":-52.31509297},"category":{"name":"Shopping"}},{"id":244268,"name":"Plage de la Cocoteraie","date_verified":"2023-09-30T00:00:00.000Z","description":"There's few carbets on the beach, bbqs, tables and even showers. It's a big area where you can park your vehicle, we asked some locals if it would be okay to sleep here and they said no problem. The place is open 24hrs\r\nWe hung our hammocks undercover and we had a quiet night. \r\nThere's some trash around unfortunately but not too bad","location":{"latitude":5.16339408,"longitude":-52.63492876},"category":{"name":"Wild Camping"}},{"id":245229,"name":"Nath cafe","date_verified":"2023-10-05T00:00:00.000Z","description":"Nice cafe recommended by locals.\r\nfree wifi, which is hard to find in Cayenne\r\n----------\r\n wifi gratuit, ce qui est difficile à trouver à Cayene","location":{"latitude":4.940493333333333,"longitude":-52.33090000000001},"category":{"name":"Wifi"}},{"id":247876,"name":"place de palmistes ","date_verified":"2023-10-27T00:00:00.000Z","description":"I stay one night here. There are a lot of people in this square, playing singing or dog walking etc. I ask some locals, and they told me better to leave the motorhome close to the central street (where is hotel des palmistes) to be safer. Looks safe to me if you want to stay in the center. There are public bathrooms but closed during the night","location":{"latitude":4.938576654531062,"longitude":-52.33373947441578},"category":{"name":"Informal Campsite"}},{"id":249024,"name":"Régina river side","date_verified":"2023-11-24T00:00:00.000Z","description":"🇬🇧\r\nWe asked at the Fire Department and the gendarmerie, but they did not allow us to open the tent. One person suggested this site by the river, and we had a very peaceful night. In the morning, an official from the town hall whom we met allowed us to use the bathrooms and showers at the soccer field and offered us to stay there if needed.\r\n\r\n🇲🇽\r\nPreguntamos en los Bomberos y en la gendarmería pero no nos permitieron abrir la carpa.\r\nUna persona nos sugirió este sitio junto al río, pasamos una noche muy tranquila.\r\nPor la mañana un funcionario de la alcaldía que conocimos nos permitió usar los baños y duchas del campo de fútbol y nos ofreció quedarnos allá también si lo necesitábamos... \r\n \r\n\r\n","location":{"latitude":4.30827,"longitude":-52.13235},"category":{"name":"Wild Camping"}},{"id":249037,"name":"Costera de Mana","date_verified":"2023-12-01T00:00:00.000Z","description":"🇬🇧\r\nIt was a peaceful night by the river, where the breeze keeps away the bothersome mosquitoes. There are two sheds with tables only.\r\n🇲🇽\r\nUna noche tranquila junto al río que es donde corre brisa ahuyentando a los molestos mosquitos hay dos quinchos con mesas solamente.","location":{"latitude":5.671165,"longitude":-53.776088},"category":{"name":"Wild Camping"}},{"id":251484,"name":"carbet on the crique","date_verified":"2023-11-27T00:00:00.000Z","description":"Translation : Nice place on the side of the road with carbets with table and benches. good river to take a bath\r\n\r\nlindo lugar al costado de la ruta con carbets con mesa y bancos. buen río para tomar baño","location":{"latitude":5.12493,"longitude":-52.73232},"category":{"name":"Wild Camping"}},{"id":252110,"name":"Cimetière ","date_verified":"2023-12-03T00:00:00.000Z","description":"Water tap at the entrance to the cemetery, open every day\r\n\r\nRobinet d’eau à l’entrée du cimetière ouvert tous les jours","location":{"latitude":5.151333530126353,"longitude":-52.64482384920771},"category":{"name":"Water"}},{"id":258898,"name":"Boulangerie ","date_verified":"2024-01-16T00:00:00.000Z","description":"Here you find the local bakery selling baguette for 90 cents and a few other baked goods. They also have an excellent toilet if you ask. A nice patio lets you see everything happening on the nearby central square ","location":{"latitude":3.888313333333334,"longitude":-51.801215},"category":{"name":"Restaurant"}},{"id":259449,"name":"Hotel ballahou","date_verified":"2024-01-19T00:00:00.000Z","description":"Nice hotel, per room its 75€ , we sleep, 2 in the big bed and 1 in the floor. The prices is per room.\r\nHot shower, wifi good. AC, and tv small","location":{"latitude":5.172542576894193,"longitude":-52.64599122506343},"category":{"name":"Hotel"}},{"id":259494,"name":"Bonaventure Hiking Trails","date_verified":"2024-03-20T00:00:00.000Z","description":"Here, in the middle of the jungle, you'll find 4 hiking trails (1,3,6 and 18km) going through various types of jungle (riverside, marsh, mountainous). Most trails are well kept and let you experience what the Amazon has to offer by yourself or with a guide.\r\nThe Camp Bonaventure functions as the hub for all trails and offers really nice carbets to put your hammock or tent in. Cold beers and snacks available at the reception but bring food with you (there are kitchens in the carbets and reception).\r\nDay visit 10€ pp\r\nCarbets 15-25€ pp or fixed price depending on group size. \r\nBoots to walk through the many water-filled areas are part of the price, but might not be the most comfortable.\r\n\r\nDuring the week, there's almost no one here but weekends easily get fully booked (max 40 persons) at least a week in advance.\r\n\r\nTo get here, turn at around km82 on N2 and follow a very smooth and nice gravel road. if you reach a police checkpoint (against illegal goldmining) that means you went 100m too far.","location":{"latitude":4.32213,"longitude":-52.33885},"category":{"name":"Tourist Attraction"}},{"id":259747,"name":"In the forest on an unused path","date_verified":"2024-01-21T00:00:00.000Z","description":"-Cyclists only-\r\nif you're in need of a wild camp close to the city center this will be good enough. This path, from a path, from a gravel road is well hidden and feels safe. it is not very flat. thankfully the pretty much unused path adds a bit of a stable surface. \r\ndirections coming from the city centre:\r\n-take the first dirt road to the left marked Sylvestrie after the parking Sentier de Montabo\r\n-About 50m into the road after a bit of climbing you'll find a path leading into the forest to the right. This \"junction\" is at the same time as the entryway to the nearby offices \r\n-Head into the forest until you find a small cleared area to the left with a path leading northwest. this new path is small and full of leaves and branches. Go as far as you like here until your suitable camping site. I placed my tent close to a forgotten orientation checkpoint (a half orange square with the number 11 on it) with a concrete rod beside it. When I was here there were like three plastic bottles along the path, a very small amount of waste compared to many other wild camps.","location":{"latitude":4.945588333333333,"longitude":-52.31528166666667},"category":{"name":"Wild Camping"}},{"id":260455,"name":"Bicycle parts of Inter Sport","date_verified":"2024-01-25T00:00:00.000Z","description":"If you're in need of better quality bicycle parts (Shimano etc) you'll be able to find a medium sized collection here at inter sport. I'm not sure if there is any mechanic usually available but the parts and workshop seems available to purchase and potentially use on site.\r\n\r\nOF NOTE: be aware that this shop is located in the junction of roads that have signs forbidding bicycles. it seems legally impossible to get here by bike. the road from the east is the lesser used one if you want to be more careful about the situation","location":{"latitude":4.92212,"longitude":-52.3303},"category":{"name":"Mechanic and Parts"}},{"id":261847,"name":"Polymeca Village motos","date_verified":"2024-07-01T00:00:00.000Z","description":"another huge motorcycle shop.  better prices for me then at the GL Motos but still not cheap.  paid 190 euro (original price 239) for an anakee wild 130/80/17 plus 20 to mount it.  also paid 28 euro (original price 35) for 4 liter jug of elf semi synthetic 10w50 oil.  owner a little arrogant but he gave me 20% discount on everything ok the store because I had whatsapped him earlier to ask about tire availability.  also had karoo 3 and Bridgestone battle-axes in stock in my size.\r\nWhatsApp: +594 694 384786\r\nhe speaks English as well","location":{"latitude":4.93583,"longitude":-52.31392},"category":{"name":"Mechanic and Parts"}},{"id":264214,"name":"Cesaire Assurance","date_verified":"2024-02-27T00:00:00.000Z","description":"Temporary insurance for all countries and up to 90 days.\r\n\r\nWe paid for our Land Rover Defender 104€ for 17 days and 25€ for the procedure. Quick and efficient. All the other insrances wouldn't make temporary insurances.","location":{"latitude":4.93843,"longitude":-52.32638},"category":{"name":"Vehicle Insurance"}},{"id":264484,"name":"Revolution Laundry","date_verified":"2024-02-29T00:00:00.000Z","description":"Selfservice Laundromat with machines for 9kg and 20kg laundry.\r\n\r\nwashing 9kg fir 7€ drying depending of the weight of your laundry.","location":{"latitude":5.1696,"longitude":-52.64327},"category":{"name":"Laundromat"}},{"id":264793,"name":"Le Depanneur","date_verified":"2024-03-04T00:00:00.000Z","description":"Damien and his wife, super friendly and welcoming to overlanders. we spent a sunday in the village to go to the market and later we came to his bar/restaurant and enjoyed a very delicious Pho (soup) and some draft beers.\r\n\r\nWe spent the night in front of his bar and the toilet with shower are open all night.\r\n\r\nWifi etc everything you need. \r\n\r\nQuiet during the night.","location":{"latitude":4.56850948,"longitude":-52.46851168},"category":{"name":"Informal Campsite"}},{"id":264911,"name":"Land Rover Mecanic","date_verified":"2024-03-05T00:00:00.000Z","description":"Christophe is an Land Rover expert, we had a basic check and he gave us a lot good advices! \r\n\r\nDoes also other 4x4!","location":{"latitude":4.93018935,"longitude":-52.3275226},"category":{"name":"Mechanic and Parts"}},{"id":265127,"name":"Parking at the boat ramp.","date_verified":"2024-03-07T00:00:00.000Z","description":"We spent the night on the paved parking. No facilities. Good Orange reception. We heard a lot of wildlife during the night.","location":{"latitude":4.49914449,"longitude":-52.05316512},"category":{"name":"Wild Camping"}},{"id":265268,"name":"Chez Mya","date_verified":"2024-03-08T00:00:00.000Z","description":"This place has the best créole cuisine we have had in Guyane! \r\n\r\nIf you want to taste authentic créole dishes, you should definitly have lunch here!\r\n\r\ntotally recommend","location":{"latitude":5.37724173,"longitude":-52.95729901},"category":{"name":"Restaurant"}},{"id":265493,"name":"Le Marché de dimanche","date_verified":"2024-03-10T00:00:00.000Z","description":"Local Hmong market, with several food courts, frrsch fruits and vegetables. Same like in Cacao but smaller and less touristic.","location":{"latitude":5.6042464,"longitude":-53.81705694},"category":{"name":"Tourist Attraction"}},{"id":280755,"name":"Big wooden rolls ","date_verified":"2024-06-28T00:00:00.000Z","description":"Big of space in the jungle no facilities seems to be an old camp where they bring out wood ! We only stayed here to have lunch but great place to stay a night !","location":{"latitude":3.9785998529173034,"longitude":-51.866930242100615},"category":{"name":"Wild Camping"}},{"id":281134,"name":"Súper U","date_verified":"2024-06-30T00:00:00.000Z","description":"Big grocery store w fairly big parking lot. Fresh fruit and food. Actually quite a nice grocery store. Fresh juices. Fresh breads. Accepts credit card","location":{"latitude":5.4926666,"longitude":-54.0317525},"category":{"name":"Shopping"}},{"id":281137,"name":"Orange","date_verified":"2024-06-30T00:00:00.000Z","description":"You can buy a SIM card and data here. $15 euro for the sim and $15 for a package of 10G. You can pay by credit card. ","location":{"latitude":5.4904927,"longitude":-54.0328421},"category":{"name":"Wifi"}},{"id":281139,"name":"Yalimale","date_verified":"2024-06-30T00:00:00.000Z","description":"A place w a large room with bunk beds. Not the nicest. I was there during low season and no one was there. I asked to pitch my tent on the property. She said yes. Wanted $20 euro. Talked her down to $10. Probably worth $5 or less. Right across the street from the beach. To be honest didn’t feel the safest here. Probably because the woman told me how it wasn’t so safe so it got in my head. Didn’t see any turtles in June. Sunrise and sunset were very nice. Some picnic tables on the beach. Definitely better spot for vans and it didn’t feel so tent friendly or so safe. ","location":{"latitude":5.7458501,"longitude":-53.9442816},"category":{"name":"Hostel"}},{"id":281140,"name":"Mundo Loco","date_verified":"2024-06-30T00:00:00.000Z","description":"There are a bunch of restaurants here right along the water with a nice relaxing vibe if you want a spot to just chill and have a beverage for a moment. Everything was expensive but you can have a fresh juice for $4-5 euro. You can just park your moto in from or parking spot around the corner. ","location":{"latitude":5.1706309,"longitude":-52.6424312},"category":{"name":"Restaurant"}},{"id":281150,"name":"Cemetary tap","date_verified":"2024-06-30T00:00:00.000Z","description":"3 fast flowing taps in this cemetary. Park next to the glass container, the taps are on the inside of this same wall, just throw a hose over. There are similar taps in other cemetaries in town too.","location":{"latitude":4.916165540930734,"longitude":-52.27043825206558},"category":{"name":"Water"}},{"id":281160,"name":"quiet street leading to beach","date_verified":"2024-06-30T00:00:00.000Z","description":"we parked for a few nights at the end of this street. friendly people. if in the right season you might observe huge turtles laying eggs at night. a lot of people practising sports during the weekend or early morning, otherwise very quiet. we didn't put table or chairs outside of course :-) could fill our watertanks at the cemetary in the same street. ","location":{"latitude":4.918666666666667,"longitude":-52.26766666666666},"category":{"name":"Wild Camping"}},{"id":281333,"name":"Green is Better","date_verified":"2024-06-30T00:00:00.000Z","description":"Spot with make your own salads and wraps, have smoothies also. Big parking lot and open mall place next door ","location":{"latitude":4.9258273,"longitude":-52.2874409},"category":{"name":"Restaurant"}},{"id":281442,"name":"Supeco Market","date_verified":"2024-07-01T00:00:00.000Z","description":"Big grocery store, large parking lot, prices are much better than the smaller local grocery stores","location":{"latitude":4.9233086,"longitude":-52.3269464},"category":{"name":"Shopping"}}]