[{"id":7476,"name":"North South Holiday Park","date_verified":"2015-05-20T03:56:13.707Z","description":"RV park with lots of sites. Also rents  rooms and cabins. All the usual amentities. Very close to the airport, with a free shuttle. WiFi for a fee - NZ$5 for 24 hours. ","location":{"latitude":-43.46866837,"longitude":172.57298071},"category":{"name":"Established Campground"}},{"id":7477,"name":"French Farm Campsite","date_verified":"2015-05-20T03:56:18.538Z","description":"FREE. Self contained vehicles only. No facilities except a few picnic tables. next to road, but not much traffic. Beautiful views over the bay.","location":{"latitude":-43.77878142,"longitude":172.9085085},"category":{"name":"Established Campground"}},{"id":7478,"name":"Orton Bradley Park","date_verified":"2023-09-24T00:00:00.000Z","description":"Camping area inside a nice park. Quiet and scenic. Lots of walks around and golf course. Cold showers, toilets, electric at sites. $8 per adult, $4 extra for electric. Self contained motorhomes only. Tent sites available only in summer months. ","location":{"latitude":-43.6587984,"longitude":172.70731214},"category":{"name":"Established Campground"}},{"id":7481,"name":"Curio Bay Campground","date_verified":"2019-03-26T02:34:39.933Z","description":"Great views from common areas. Amenities need a serious upgrading. Walking distance to penguin viewing and petrified forest. No cell reception, no WiFi.","location":{"latitude":-46.66079203,"longitude":169.1008105},"category":{"name":"Established Campground"}},{"id":7547,"name":"Clifton Bridge","date_verified":"2024-03-24T00:00:00.000Z","description":"Small grassy space for tents and gravel parking lot for vehicles. Next to a river and a historic suspension bridge. flush toilets and a water tap in the tent field. Dump station in town. Free.","location":{"latitude":-46.02862146,"longitude":167.7154279},"category":{"name":"Informal Campsite"}},{"id":7548,"name":"Milford sound lodge","date_verified":"2018-10-07T03:49:51.560Z","description":"Lodge and campsite. Expensive, but the only place in Milford to camp. Top notch facilities. Internet is satellite, and pay per mb. Ask for a spot in the back by the river, better views! $25 per person for powered campsite.","location":{"latitude":-44.67734088,"longitude":167.93945184},"category":{"name":"Established Campground"}},{"id":7600,"name":"Lake Gunistan free camp","date_verified":"2023-11-04T00:00:00.000Z","description":"Big park next to the lake. Lots of space to park and camp. No facilities except old concrete toilet block. But you'll stay for the view not the amenities. Town of Cromwell is 2km away and has gas, dump station and several good wineries! Free to camp. Pack out your rubbish.","location":{"latitude":-45.0073,"longitude":169.21443},"category":{"name":"Informal Campsite"}},{"id":7612,"name":"Wanaka Top 10","date_verified":"2021-06-04T05:52:18.458Z","description":"Great holiday park. Free unlimited internet. Hot showers, kitchen, dump station, laundry, spa and sauna! Cabins and rooms are also available. $42 for 2 adults in a powered campsite. 5 minute drive from Wanaka waterfront. ","location":{"latitude":-44.70543212,"longitude":169.10914144},"category":{"name":"Established Campground"}},{"id":7701,"name":"Smith's Farm Holiday Park","date_verified":"2018-12-10T04:41:30.171Z","description":"Nice campground on a working farm. There is a hike to a waterfall that has glow worms. bathrooms with showers and laundry facilities. A bonus is the wood fire common area with gas bbq. $18pp for a powered site.","location":{"latitude":-41.28921632,"longitude":173.88689114},"category":{"name":"Established Campground"}},{"id":7706,"name":"Owhiro Bay Parking Lot Free Camp","date_verified":"2023-04-21T00:00:00.000Z","description":"Free camping in parking lot. Toilets but no other amenities. Max stay is 4 days. Can be noisy at night. Beautiful hikes nearby on the coast. 10min to Wellington center.","location":{"latitude":-41.34743,"longitude":174.74725},"category":{"name":"Informal Campsite"}},{"id":7707,"name":"Samson domain","date_verified":"2015-06-01T04:31:20.607Z","description":"nothing more than a parking lot next to the freeway. good for a night. ","location":{"latitude":-40.22447349,"longitude":175.42065333},"category":{"name":"Informal Campsite"}},{"id":7742,"name":"Managhuia Campsite","date_verified":"2023-03-26T00:00:00.000Z","description":"DOC site in the woods next to a small creek. Seperate tent spots, covered shelter for dishes and cooking. Private parking spots for RVs. Pit toilets, but very clean. $6 PP. Very close to Mordor. Watch out for orcs. ","location":{"latitude":-39.18127211,"longitude":175.46968756},"category":{"name":"Established Campground"}},{"id":7814,"name":"Hora Hora domain- free camp","date_verified":"2015-06-06T00:00:00.000Z","description":"Free spot next to a lake. Has toilets, but no other amenities. Only self contained motorhomes are allowed, no tents. Very close to the hobbiton movie set. Free camp here a few nights to save up for the crazy priced tour. ","location":{"latitude":-37.95675,"longitude":175.65637},"category":{"name":"Informal Campsite"}},{"id":7815,"name":"Shakespear regional park","date_verified":"2020-02-19T01:16:59.343Z","description":"Nice big park with camping g areas, beaches and hikes. Toilets, bags, picnic tables. We'll maintained. $6 pp. Beautiful scenic spot to relax for a few days. only an hour from Auckland. No dogs!","location":{"latitude":-36.61293594,"longitude":174.82483223},"category":{"name":"Established Campground"}},{"id":7816,"name":"Blue Heron Campground ","date_verified":"2018-11-05T06:38:40.621Z","description":"Awesome spot right on the ocean, hot showers, bbq, laundry and WiFi. owners are super friendly and the wildlife is pretty cool. we paid $39 Nsd for a powered site","location":{"latitude":-35.78449937,"longitude":174.41962933},"category":{"name":"Established Campground"}},{"id":12822,"name":"Uretiti Beach Camping","date_verified":"2016-01-31T06:09:57.306Z","description":"DOC campground next to an beautiful beach. Can be crowed in high season but still enough place, even a Saturday in summer time. 2$ for a rubbish bag the first day, 10$ per adult per night and 5$ per kid over 4 years old, free under 5.","location":{"latitude":-35.93540904581168,"longitude":174.46091970445073},"category":{"name":"Established Campground"}},{"id":22140,"name":"Waitomo Glowworm Caves","date_verified":"2016-09-24T04:12:40.672Z","description":"This is the iSITE location in Waitomo where you can find nearby locations to explore caves and witness the beauty of Glowworms. well worth a visit! I used the Black Water Rafting Co which was nice, but personally I found the price higher than needed. the water is fun, but a simple cave walk is nice and cheap. ","location":{"latitude":-38.2608556,"longitude":175.10904067},"category":{"name":"Tourist Attraction"}},{"id":34642,"name":"Tutukaka Holiday Camp","date_verified":"2017-05-07T05:08:25.666Z","description":"Campsite in Tutukaka, about 25 km north of Whangarei","location":{"latitude":-35.60705922081657,"longitude":174.52284059503538},"category":{"name":"Established Campground"}},{"id":38822,"name":"Waterfall","date_verified":"2019-01-24T00:00:00.000Z","description":"Nice waterfall 15min of the road. Long drop of thin creek. ","location":{"latitude":-42.361568701492956,"longitude":172.25144835205026},"category":{"name":"Tourist Attraction"}},{"id":38823,"name":"DOC Marble Hills Camping Area","date_verified":"2023-09-18T00:00:00.000Z","description":"Nice DOC camp site. Basic facilities. Walking tracks here also. Safe. $8 NZ per adult per night. ","location":{"latitude":-42.35164188783835,"longitude":172.22134918921833},"category":{"name":"Established Campground"}},{"id":54113,"name":"Centre of the North Island","date_verified":"2017-12-14T00:00:00.000Z","description":"This point is the centre of the north island. From the end of the gravel road Its a 300 meter walk to this point. ","location":{"latitude":-38.52530329957467,"longitude":175.67305547201602},"category":{"name":"Tourist Attraction"}},{"id":68879,"name":"Gulf Harbor Car Park","date_verified":"2018-11-05T00:00:00.000Z","description":"Large parking area advertising that overnight stays are permitted. Great views over the water towards Auckland and surrounding area. Clean toilets and a free dump station on site. ","location":{"latitude":-36.62441047,"longitude":174.78552319},"category":{"name":"Informal Campsite"}},{"id":68880,"name":"Ti point ","date_verified":"2023-12-11T00:00:00.000Z","description":"Small gravel lay by with a sign permitting a maximum of 2 nights stay for self-contained campers only.\r\nRunning water toilet block next to the main car park, no drinking water.\r\nClear sea, boat ramp and an excellent hike also here. ","location":{"latitude":-36.31724,"longitude":174.78472},"category":{"name":"Informal Campsite"}},{"id":70099,"name":"Bluebridge ferry terminal ","date_verified":"2018-03-20T00:00:00.000Z","description":"Interisland ferry terminal for Bluebridge (different to the Interislander). DON'T get off the motorway at the sign saying \"Picton Ferry\".  Fares, timetables and booking are online.","location":{"latitude":-41.280816039108934,"longitude":174.78090103731935},"category":{"name":"Vehicle Shipping"}},{"id":70783,"name":"Freedom camping Wellington ","date_verified":"2018-11-12T00:00:00.000Z","description":"Is a good place in from the of harbor and near the center .","location":{"latitude":-41.31202307995409,"longitude":174.79649607092142},"category":{"name":"Informal Campsite"}},{"id":71449,"name":"Lyell Camping DOC","date_verified":"2024-02-08T07:41:18.000Z","description":"Good place near  river and trees and track, toilets","location":{"latitude":-41.79665946677396,"longitude":172.04910482122003},"category":{"name":"Informal Campsite"}},{"id":71450,"name":"Free campside","date_verified":"2018-09-20T23:56:48.085Z","description":"Nice place in from the off beach but don't have water, light.","location":{"latitude":-42.129748,"longitude":171.328378},"category":{"name":"Informal Campsite"}},{"id":72676,"name":"Glenorchy ","date_verified":"2018-10-04T00:00:00.000Z","description":"This is a place but is possible camping only day. Is a beautiful place.","location":{"latitude":-44.85280611086637,"longitude":168.38302904739976},"category":{"name":"Wild Camping"}},{"id":72689,"name":"Paradise ","date_verified":"2018-12-21T02:10:25.568Z","description":"Paradise is a nice place with rivers and a beautiful views","location":{"latitude":-44.724082,"longitude":168.363746},"category":{"name":"Wild Camping"}},{"id":75401,"name":"Lakeview Holiday Park ","date_verified":"2022-11-01T00:00:00.000Z","description":"It is a big campinground and a nice and beautiful place. There are many spots with view to lake and mounts.","location":{"latitude":-45.03150564618409,"longitude":168.65499783307314},"category":{"name":"Established Campground"}},{"id":75743,"name":"Whangarei Museum, Kiwi House, Heritage Park","date_verified":"2018-11-06T00:00:00.000Z","description":"Bird rescue center and other interesting tourist activitys here.\r\nThe Heritage Park has historical buildings and museums. There is a medical museum that has stuff spanning 100 years. The large Whangaeri Museum has live kiwis you can observe during the day. Also Moa bones found just 4 years ago. Special traveling exhibts, too. Can spend hours here walking the 28 hectors over looking the Whangaeri basin.","location":{"latitude":-35.74226808,"longitude":174.26887784},"category":{"name":"Tourist Attraction"}},{"id":75744,"name":"Ocean Beach Whangaeri Heads","date_verified":"2020-02-10T00:00:00.000Z","description":" Free car park site as found on Camper Mate. Only allowed one night. Limited area (maybe 4 spots). Will have toilet \u0026 shower but unfortunately it is not open yet. Just Porta potty now. No cell signal.  Amazing beach and nice tracks. Saw Gannets, Oyster Catchers, Tuis. Maybe Kiwis tonight! Dogs are frowned upon \u0026 not allowed. They are the biggest killers of kiwi birds.\r\n","location":{"latitude":-35.839333333333336,"longitude":174.5725},"category":{"name":"Established Campground"}},{"id":75745,"name":"Urquart's Bay tracks","date_verified":"2018-11-08T00:00:00.000Z","description":"Amazing tracks (trails) all the way out to the end of Bream Head. Really good birding. Can watch the boats go in \u0026 out of Whangaeri. Grab your beach stuff \u0026 head down on to Smugglers Cove. This coordinate is not the parking. No camping in the car park but has very nice restroom \u0026 water.","location":{"latitude":-35.8522996,"longitude":174.53423403},"category":{"name":"Tourist Attraction"}},{"id":75746,"name":"AH Reed Memorial Park","date_verified":"2018-11-08T00:00:00.000Z","description":"Neat place in the Kauri forest. Not really level. Hatea River walk starts here. ","location":{"latitude":-35.69659263,"longitude":174.33760141},"category":{"name":"Established Campground"}},{"id":75748,"name":"The Whitehouse Driveway","date_verified":"2018-11-09T00:00:00.000Z","description":"This place is a bit funky but a wee bit cheaper than the regular campground.  Good location for exploring the area. All the boat launches are walking distance.","location":{"latitude":-35.28135839,"longitude":174.08972292},"category":{"name":"Established Campground"}},{"id":76065,"name":"Tapotupotu DOC ocean camp","date_verified":"2022-12-05T00:00:00.000Z","description":"Sweet spot not too far from Cape Rerenga Wairua, the top of New Zealand! Dept of Conservation camp $13/pp.  Good but steep dirt road to the camp.","location":{"latitude":-34.43733808,"longitude":172.71647978},"category":{"name":"Established Campground"}},{"id":76066,"name":"Cape Reinga lighthouse","date_verified":"2018-11-12T00:00:00.000Z","description":"The very northern tip of New Zealand! Where the Tasman and South Pacific crash together. Amazing walks all around. Informative signs along the paved path to the lighthouse. You can camp near by \u0026 come early so as to avoid the bus crowds.  Backpackers start here to hike the length of the North island to Bluff.","location":{"latitude":-34.42661825,"longitude":172.6777084},"category":{"name":"Tourist Attraction"}},{"id":76067,"name":"Kapowairua (Spirits Bay)","date_verified":"2018-11-12T00:00:00.000Z","description":"Nice ablution block with cold showers. However camp is not in view of the surf as with Tapotupotu Bay. Once on the beach you can walk forever. Bring bug dope! $13/pp.","location":{"latitude":-34.42675529,"longitude":172.86219994},"category":{"name":"Established Campground"}},{"id":76250,"name":"The Tree House","date_verified":"2018-11-14T00:00:00.000Z","description":"A lovely spot deep in the bush. Room for only one small rig BUT can stay in shared or cabin. More a hostel. Can do laundry $8-10. Very clean. Lots of birds. $20/pp. \r\nCan backpack camp fer sure. \r\ntreehouse.co.nz, (09)405-5855","location":{"latitude":-35.37705955,"longitude":173.5142694},"category":{"name":"Established Campground"}},{"id":76251,"name":"Arai Te Uru Heritage Walk","date_verified":"2018-11-14T00:00:00.000Z","description":"Amazing over look to the heads of the Hokianga Harbor. You can walk right out to the edge. Huge sand dunes on the north, native bush on the south. Well worth a stop. The Tasman sea is vast.","location":{"latitude":-35.5383051,"longitude":173.37267957},"category":{"name":"Tourist Attraction"}},{"id":76252,"name":"Trouson Kauri Park Camp","date_verified":"2023-04-03T00:00:00.000Z","description":"Right next to a Kauri park. DOC camp with or without power. $15/pp without,$18/pp with. We'll look for kiwis tonight! Take the surface road in from the south even if you're coming from the north!","location":{"latitude":-35.72143837,"longitude":173.65251846},"category":{"name":"Established Campground"}},{"id":76253,"name":"Waiomu Domain","date_verified":"2018-11-15T00:00:00.000Z","description":"Better have your \"Self contained sticker\" \u0026 stay between the signs or you will be fined $200! Cool spot. Quiet off the street.","location":{"latitude":-37.0275,"longitude":175.51578},"category":{"name":"Informal Campsite"}},{"id":76409,"name":"Egans Reserve campground","date_verified":"2018-11-16T00:00:00.000Z","description":"Freedom camping with bad reviews on Campermate. Room 5-6 rigs fairly level.  Picnic tables. Off the dirt road a bit.  Had a nice swim in the stream with the eels. Lots of birds. Great drive though the Kauri forest. Stop and walk the tracks. Pit toilet (long drop loo)  looks very clean. No one here \u0026 it's Friday night! Cross fingers. No Zealand is packed with people scrambling for camps and it isn't even school holidays yet. Very restricted here. Cannot just camp anywhere even with the so called \"Self contained\" rig.","location":{"latitude":-36.85730972,"longitude":175.59238338},"category":{"name":"Established Campground"}},{"id":76509,"name":"Coromandle Town Free camp #2","date_verified":"2023-04-07T00:00:00.000Z","description":"There are 2 freedom camping places in town. This one has a lovely stream behind it but is right next to the road. The other is quiet but all carpark.  Drunken people yelling walking by but they kept walking. Toilet is quite a bit of a walk. Okay to explore this old town with good fish n' chips. Nice walking to tracks to a Pa'  overlooking the harbor and town.  Picnic table right by carpark but use your bug dope. Lots of sand flies.","location":{"latitude":-36.75706,"longitude":175.49893},"category":{"name":"Informal Campsite"}},{"id":76573,"name":"Thomas Burns Freedom Campsite","date_verified":"2023-05-10T00:00:00.000Z","description":"This is a carpark that allows overnight camping in non-self-contained vehicles. There are port-a-loos, rubbish and recycling bins and a sink with fresh water at the site. There is no grass and tenting is not allowed. Conveniently close to city centre. If you stay between the hours of 8am-6pm you need to pay for parking, cost is $5 per day.","location":{"latitude":-45.87713,"longitude":170.50737},"category":{"name":"Established Campground"}},{"id":76638,"name":"Colville Bay Motel and Motor camp","date_verified":"2018-11-18T00:00:00.000Z","description":"Nice place tucked up in the hills near Colville. $10/pp without power, $12 with. A hot tub (spa) for $5 1/2 hour. Very peaceful. Laundry on site with clothes line. $2/ cold wash.","location":{"latitude":-36.62918886,"longitude":175.46773039},"category":{"name":"Established Campground"}},{"id":76728,"name":"TECT All Terrain Park","date_verified":"2023-04-12T00:00:00.000Z","description":"Only self-contained vehicles allowed here. \r\n\r\nHuge Freedom Camp area in the woods. Strange Park for us. Paintball, motor \u0026 mountain bike trails, etc. Thanks for the nice spot on the way to Rotorua!\r\n\r\nfree camping, toilets, wifi and potable water. paid showers, electric stoves, washers/dryers, power outlets in laundry and washing up sinks. \r\n\r\nyou need a kiwi cash fob to use $2 hot showers (5 mins) buy in Rotorua or Tauranga costs $5 then load money on with app. app didn't work on my new android phone lucky I had an old one. download the kiwi cash app before you buy the fob.","location":{"latitude":-37.94659,"longitude":176.15484},"category":{"name":"Informal Campsite"}},{"id":76772,"name":"Forsyth Lake","date_verified":"2022-10-26T00:00:00.000Z","description":"on edge of lake. on grass. very quiet. neighbours are ducks","location":{"latitude":-43.79019713718516,"longitude":172.75844736147025},"category":{"name":"Wild Camping"}},{"id":76826,"name":"Waiotapu Tavern camp","date_verified":"2018-11-22T00:00:00.000Z","description":"\u0026 now for something completely different. Park behind the tavern. Have a nice pub meal and a pint. Flat $20 per vehicle, not pp like every where in this country. Includes shower, toilet. Flat spots on grass. Right on State highway 5 so a bit noisy. Oh yeah, and it's behind the pub!! Electric plugs by toilet, scullery sink also.","location":{"latitude":-38.33991783,"longitude":176.36330498},"category":{"name":"Established Campground"}},{"id":76878,"name":"diamond harbour","date_verified":"2018-11-21T00:00:00.000Z","description":"carpark which is after the harbour on the hill. short walkway to go down to the ferry to Littletoye","location":{"latitude":-43.62329528537329,"longitude":172.73809881280044},"category":{"name":"Wild Camping"}},{"id":76921,"name":"picton","date_verified":"2018-11-23T19:26:31.201Z","description":"campground for campervan ok for 6m. washmachine and drier. hot shower. near the road but very quiet during the night. 38$ without electricity","location":{"latitude":-41.295739090324375,"longitude":174.00120208236146},"category":{"name":"Established Campground"}},{"id":76969,"name":"Glens Falls on the Mohaka river","date_verified":"2018-11-23T00:00:00.000Z","description":"Free or donation camp with beautiful grassy spots right on the river far from the highway to Napier. ","location":{"latitude":-39.13992985,"longitude":176.67571171},"category":{"name":"Established Campground"}},{"id":76970,"name":"Perfume Point Freedom Camp","date_verified":"2023-04-18T00:00:00.000Z","description":"Pretty far from town but walkable. Neat spot right on Hawkes Bay. Four spots. In demand even off season. Warm water in the washroom so could take a sponge bath. We got here and the slots were full. Hung out because we didn't really have a plan and someone started up and left. Yeah!!! There is a cold shower outside. Very clearly marked what places are Freedom Camps.","location":{"latitude":-39.47821,"longitude":176.89625},"category":{"name":"Informal Campsite"}},{"id":77356,"name":"riversdale beach","date_verified":"2018-11-25T00:00:00.000Z","description":"small locality on the beach. very quiet. parking asphaltated. a lot of wind. behind trees it is ok","location":{"latitude":-41.09984633800432,"longitude":176.06866020783886},"category":{"name":"Wild Camping"}},{"id":77357,"name":"brokes place","date_verified":"2018-11-29T00:00:00.000Z","description":"near Hobbiton. small campground for small campervan or tent. the ground is not flat. 8$/person+2$ for warm shower. take your rubbish with you","location":{"latitude":-37.88156036776602,"longitude":175.6966039029993},"category":{"name":"Established Campground"}},{"id":77413,"name":"Gannett Safaris, Overland, Cape Kidnapper's","date_verified":"2018-11-27T00:00:00.000Z","description":"Two tour operators out here to see the Gannett. One goes over land the other a tracker pulls a trailer at low tide. The overland bus isn't tide dependent. That's the Safari one. Safari is more $ but goes right up next to the colony while the tracker parks on the beach and you must hike up to the colony.  The hike is 2.5 kms with a gain of 500 feet. This GPS location is the Safari office.","location":{"latitude":-39.64101443,"longitude":176.98826959},"category":{"name":"Tourist Attraction"}},{"id":77414,"name":"Clifton Road Reserve","date_verified":"2018-11-27T00:00:00.000Z","description":"Really neat place on the sea. Donation please. Let's keep places like like this open! Lots of room no need to park on top of each other. Little spots in the bush for wind breaks.","location":{"latitude":-39.62010792,"longitude":176.96161054},"category":{"name":"Established Campground"}},{"id":77415,"name":"Springvale Suspension Bridge","date_verified":"2018-11-29T00:00:00.000Z","description":"Historic bridge built in 1925 closed 1970. Road realigned with new bridge. Lots of room to camp. Big pool in the river but cold days for us.   Please respect this very special camp right on the river.","location":{"latitude":-39.48760045,"longitude":176.03467359},"category":{"name":"Established Campground"}},{"id":77681,"name":"Taumarunui Holiday Park","date_verified":"2020-03-22T00:00:00.000Z","description":"Great little family run place. A little on the funky side but better value than the Top 10 s. $18/pp with power.\nCabins 55Nzd for 2 persons, very basic without blankets.\nClosed due to Corona-Virus the 22.3.2020\n","location":{"latitude":-38.88381081,"longitude":175.30855789},"category":{"name":"Established Campground"}},{"id":77682,"name":"Piriaka yummy water","date_verified":"2018-12-01T00:00:00.000Z","description":"Springs here so good. While water is potable in NZ, most tastes bad.","location":{"latitude":-38.92577275,"longitude":175.34081494},"category":{"name":"Water"}},{"id":77683,"name":"Morgan's Grave Camp","date_verified":"2023-03-24T00:00:00.000Z","description":"Freedom Camp right by Tangarakau Gorge. The Forgotten World Highway is full of history.  Camp by the bridge in a pullout by the toilet. Picnic table and short trail to Morgan's grave. About 3 cars went by on a Saturday night. Glow worms!","location":{"latitude":-38.97843052,"longitude":174.83341081},"category":{"name":"Informal Campsite"}},{"id":77684,"name":"Dawson Falls Birthday camp","date_verified":"2018-12-02T18:49:15.293Z","description":"Right on the side of the mountain Freedom camp. No set spots just a car park at the visitors center.","location":{"latitude":-39.32373346,"longitude":174.10400733},"category":{"name":"Established Campground"}},{"id":77792,"name":"Lyall Bay Carpark","date_verified":"2021-01-19T00:00:00.000Z","description":"Free parking on the beachfront. Next to the airport and exposed to wild weather. Public Toilets nearby.","location":{"latitude":-41.32891,"longitude":174.80513},"category":{"name":"Wild Camping"}},{"id":77874,"name":"Opunake Lake Freedom Camp","date_verified":"2018-12-03T00:00:00.000Z","description":"Wow an actual \"Freedom Camp\" where you are welcome to stay with Self contained, NOT sc, or a tent. 6 vehicles max 3 nights/ month. Good birding on the lake. Bonus: down by the beach behind the toilet is a outside shower! The campground wanted $8/pp for a shower.","location":{"latitude":-39.45817,"longitude":173.86013},"category":{"name":"Informal Campsite"}},{"id":77876,"name":"Volca No View","date_verified":"2018-12-03T00:00:00.000Z","description":"Closed Monday and Tuesday.  Joeb came over and wasn't thrilled about anyone being there. It's Monday. He welcomed us to park but not open shower, toilet, restaurant. Hey, don't blame him only us. Another camper came in and left. Big rain, no fun. No power sites. We went to the Freedom camp another 5 k up the road.","location":{"latitude":-39.20101857,"longitude":174.14287244},"category":{"name":"Established Campground"}},{"id":77877,"name":"Rotokare Freedom Camp","date_verified":"2018-12-05T00:00:00.000Z","description":"A predator free fence surrounds this place. Very neat walks with endangered birds. Saddleback \u0026 Hihi and more. They ask donation for camping of $5 but  please give more for this special place!","location":{"latitude":-39.45147847,"longitude":174.39922849},"category":{"name":"Established Campground"}},{"id":77878,"name":"Ross's Dairy Farm camp","date_verified":"2018-12-05T00:00:00.000Z","description":"And now for something completely different. \r\nRoss and his dog, Nelson welcome you to learn about the dairy business. $10 to park, $5 pp for a shower in the garage. Toilet is across the yard in the milking barn. No power. A unique experience. ","location":{"latitude":-40.26802749,"longitude":175.36259313},"category":{"name":"Established Campground"}},{"id":78074,"name":"Unknown ","date_verified":"2018-11-06T00:00:00.000Z","description":"Next to main road, large area to camp surrounded by sheep. We spent the night and could make a nice camp fire. Low traffic road ","location":{"latitude":-39.063505737600536,"longitude":174.79644556201825},"category":{"name":"Wild Camping"}},{"id":78286,"name":"Ngawi Donation camp, Wairarapa District","date_verified":"2023-03-19T00:00:00.000Z","description":"Right on the ocean and last night it was loud! Long drop loos pretty clean IF people put the seats down! No water. Picnic tables if it weren't so cold outside. Can walk around the bulldozers. Did get cell signal. Neat place. Respect and donate please.","location":{"latitude":-41.58870826,"longitude":175.23348539},"category":{"name":"Established Campground"}},{"id":78287,"name":"Palliser Lighthouse","date_verified":"2018-12-07T00:00:00.000Z","description":"Matakitakiakupe! An amazing place. Built 1897 of cast iron. The coolest lighthouse painted red \u0026 white. Lots of steps up to get to the 250 inside the lighthouse tower. Watch out for Fur seals on the road!","location":{"latitude":-41.61276117,"longitude":175.29199476},"category":{"name":"Tourist Attraction"}},{"id":78288,"name":"Whatamango Bay","date_verified":"2018-12-10T00:00:00.000Z","description":"DOC campground that has flush toilets, a sink for washing dishes and non-potable running water.  Cost is $8 per person.  The road to the camp is narrow and very winding but this is the closest inexpensive camping to Picton.","location":{"latitude":-41.269155,"longitude":174.07522005},"category":{"name":"Established Campground"}},{"id":78503,"name":"Havelock Kiwi Holiday park","date_verified":"2018-12-12T00:00:00.000Z","description":"Right in town but pretty quiet. $20/pp power, $34 w/o. Buck for a shower, no free time on WiFi. Smiths family farm so much better especially greetings with muffins, bush walk, free shower, WiFi. BUT that's 15 kms outta town. ","location":{"latitude":-41.27859751,"longitude":173.76823289},"category":{"name":"Established Campground"}},{"id":78504,"name":"Donegal House Irish Hotel","date_verified":"2018-12-12T00:00:00.000Z","description":"Thank You Murray \u0026 Pub people! Great food! We had the lamb roast \u0026 pavlova for dessert. Biggest portions so far in NZ and delicious!!  Free place to stay without power, $20 per space with power. Showers 2 x $2, toilets. Check into the bar when you arrive. Wish all of NZ showed this kind of hospitality. ","location":{"latitude":-42.36499301,"longitude":173.65609232},"category":{"name":"Established Campground"}},{"id":78631,"name":"Banks Peninsula Experience","date_verified":"2018-12-14T00:00:00.000Z","description":"Great experience with the locals. Jan, Matt, Bree \u0026 dog, Ella's driveway. Don't just show up. Please call to book 027-586-9102, 03 329 0151.   janpoynter@yahoo.com\r\n$30/ night. Some cool experiences out here like make your own bone carving with the Bone Dude or visit the gem guy, Vince. Matt Daffin also runs a motorcycle hire \u0026 guided tours.","location":{"latitude":-43.82361371,"longitude":172.70834787},"category":{"name":"Established Campground"}},{"id":78983,"name":"Caroline Bay Timaru Freedom Camp","date_verified":"2023-05-08T00:00:00.000Z","description":"Camping in a carpark between a very busy Port and a beautiful park. See the Little Blue Penguins at night. ","location":{"latitude":-44.38999,"longitude":171.25286},"category":{"name":"Informal Campsite"}},{"id":79072,"name":"Takapuna Beach Holiday Park ","date_verified":"2018-12-07T00:00:00.000Z","description":"Gorgeous little campground on the waters edge, electricity and dump facilities along with bathrooms and kitchen. In the centre of Aucklandâ€™s most popular eating and drinking spot and perfect for beach walks and getting public transport and taxis/Uber. ","location":{"latitude":-36.78333467157992,"longitude":174.77649179838522},"category":{"name":"Established Campground"}},{"id":79142,"name":"All Day Beach camp","date_verified":"2023-12-02T00:00:00.000Z","description":"Pretty rough spot on the side of the road. Lots of muddy spots\r\n Nasty long drop loo with no door. Beautiful beach over the berm. ","location":{"latitude":-45.21214,"longitude":170.8846},"category":{"name":"Wild Camping"}},{"id":79225,"name":"ATLANTIS Hostel","date_verified":"2020-11-30T00:00:00.000Z","description":"a good place to stay, a touch of hippie, lots of paintings and colourful curtains around the dorms...young people, a generously equipped kitchen and common areas, layback and quite clean! comes with WIFI and breakfast, large dorm is at 20pp pn, upgrades into comfy bed (smaller dorm) is 25NZD...Private Rooms are possible too.\r\nA GOOD PLACE TO STAY FOR A TRUE BACKPACKER!","location":{"latitude":-41.288918,"longitude":174.0061},"category":{"name":"Hostel"}},{"id":79294,"name":"Oamaru Harbour Tourist Park camp","date_verified":"2019-03-14T00:00:00.000Z","description":"Spendy @ $50 /$55/ site but if ya wanna see Penguins, this is a great base. Little Blue Penguins actually come right into the camp to nest at around midnight. Can be quite loud! \r\nThe town is worth exploring. Very interesting. Good bakery in the Precinct with pies and amazing sour dough breads. $2 for WiFi so don't know how it works.","location":{"latitude":-45.106448,"longitude":170.97134816},"category":{"name":"Established Campground"}},{"id":79295,"name":"Caseys Bay boat launch","date_verified":"2018-12-21T00:00:00.000Z","description":"Dunedin City Council property allows self contained vehicles to camp with no more than three rigs in a 50 m radius unless otherwise indicated. Parking on grass is not allowed. This is a carpark across from a pub. Pretty far off the beaten path. You gotta have your own facilities. None here.","location":{"latitude":-45.80806716,"longitude":170.62351615},"category":{"name":"Informal Campsite"}},{"id":79653,"name":"Ocean View Rec Reserve Brighton","date_verified":"2023-10-03T00:00:00.000Z","description":"Freedom Camp with nice beach over a berm. It's on a busy road. Dish washing station, dump, fresh water in addition to the loos. 10 spots in all.","location":{"latitude":-45.93763785,"longitude":170.35654815},"category":{"name":"Established Campground"}},{"id":79834,"name":"Hilltop Camp","date_verified":"2018-12-26T00:00:00.000Z","description":"Neat place, good base to explore for $10/ pp. Great big paddock so lots of space. We didn't stay.","location":{"latitude":-46.41384759,"longitude":169.72082114},"category":{"name":"Established Campground"}},{"id":79835,"name":"Tawanui Catlins River Camp","date_verified":"2018-12-27T00:00:00.000Z","description":"Basic DOC camp. $8/ person. Water, toilets. Just a place to park near the trail into the bush.","location":{"latitude":-46.45777814,"longitude":169.49531893},"category":{"name":"Established Campground"}},{"id":80046,"name":"Waikawa Freedom Camp","date_verified":"2023-05-13T00:00:00.000Z","description":"Pretty cool spot right on the bay. Great place to explore. Penguins, Petrified Forest, lots of history and great bush walks. Large carpark can get pretty muddy. room for about 30 vans Thanks very much Southland District for the facilities. Strong 4G cell signal. free wifi from museum here","location":{"latitude":-46.62203958,"longitude":169.13607794},"category":{"name":"Informal Campsite"}},{"id":80174,"name":"Bluff Camp ","date_verified":"2019-01-01T19:55:48.783Z","description":"Nice facilities near the ferry. Not too full at high season.  Huge field for unpowered. Good walks. Handy small stores. Powered sites $25/ pp. Day use fee $5/ pp. Laundry, shower, kitchen, etc. Cash only in an honesty box even though, Brent lives right there and there is WiFi. ","location":{"latitude":-46.60408341,"longitude":168.35055577},"category":{"name":"Established Campground"}},{"id":80187,"name":"Mevlana Kebabs Turkish cuisine","date_verified":"2019-01-01T23:45:59.585Z","description":"Really good food for good value. Lunch special Stuffed pita with cheesy chips $11! ","location":{"latitude":-46.41274414,"longitude":168.35131957},"category":{"name":"Restaurant"}},{"id":80682,"name":"Hastings Top 10 Classic","date_verified":"2018-11-26T00:00:00.000Z","description":"Great base for wine tasting, olives, figs and the Gannets out at Cape Kidnappers. Place has a nice pool, laundry $4/ wash$4 dry, hot tub for$8/half hour. $23/pp. Little shops nearby. Big stores further away. After a few days Freedom camping we thought we'd treat ourselves.","location":{"latitude":-39.64798518,"longitude":176.86231553},"category":{"name":"Established Campground"}},{"id":80691,"name":"Monowai lake Camp","date_verified":"2019-01-04T00:00:00.000Z","description":"Mostly tents but a couple of places for a campervan. Long drop loo pretty stinky. Nice walking tracks. Deep forest with lots of black flies. Bring your spray! Pretty place. Please donate to DOC box. ","location":{"latitude":-45.811243,"longitude":167.52124783333332},"category":{"name":"Informal Campsite"}},{"id":80692,"name":"Manapouri Caravan Park","date_verified":"2023-11-06T00:00:00.000Z","description":"The cleanest facilities we've seen in all of NZ in over 2 months. The abultion block with kitchen, showers, laundry, lounge, lovely. The hostess, Gloria is not friendly at all but she keeps a tight ship. Very protected pitches keep you out of the wind. $42/ 2 people powered site. Top 10 in The Anau was $62! Take a flight with Fly Fjordland 0800 359 346. We did Doubtful Sound on a boat. Very interesting. Wait for good weather.","location":{"latitude":-45.5625331,"longitude":167.63147263},"category":{"name":"Established Campground"}},{"id":80693,"name":"Te Anau Bird Sanctuary","date_verified":"2019-01-06T00:00:00.000Z","description":"Te Anau Bird Sanctuary has rescue birds of all sorts. The Takah'e are really special. Only about 300 left. The DOC people feed them and give a wee talk about them and other conservation efforts. Please be sure to leave a donation to continue these valuable programs.","location":{"latitude":-45.4332612,"longitude":167.71426507},"category":{"name":"Tourist Attraction"}},{"id":80848,"name":"Trotters Gorge DOC Camping","date_verified":"2021-02-26T00:00:00.000Z","description":"a very nice grassy area in the middle of a forest close to a creek. access via 2 river crossings but easily possible in 2WD. Short gravel road ends at a gate with 7 parking spots - they closed the gate in order to spare the grass, so carry your tents for 15m ;) - if you are selfcontained/sleepervan maybe use the parking lots (space for 10 vehicles max.) - got pit toilets but no drinking water.\r\nperfect for a night in the tent!\r\nDon't drive a BIG car all the way up...it is kinda narrow after the first turning spot. \r\nPicnic tables but no shelter if rain.","location":{"latitude":-45.40411,"longitude":170.78169},"category":{"name":"Established Campground"}},{"id":80849,"name":"Moke Lake DOC Campground","date_verified":"2020-12-15T00:00:00.000Z","description":"if you are looking for a beautiful and quiet spot to camp near Queenstown you should head for this one. located on a lake (swimming), huge area for campervans and tents - you sure find a quet spot! gravel road in good condition even if 1 lane only at places. \r\ngot pit toilets, kitchen shelter, running water. $15 pp/pn (honesty box plus there is a camp warden who comes to collect too)","location":{"latitude":-44.99864,"longitude":168.57338},"category":{"name":"Established Campground"}},{"id":80850,"name":"Barnyard Backpackers LODGE/Hostel/Camp","date_verified":"2018-12-28T00:00:00.000Z","description":"A beautiful lodge on top of the hill, they rent rooms (around 30-40nzd) but you can pitch your tent in the backyard too (it was fully booked when we came in) - the indoors are great, fully equipped kitchen with free tea \u0026 coffee, laundry available, hot showers, wifi. very comfortable lounge and friendly staff. (price pp pn in tent was 20nzd)\r\nThe views on the mountains were amazing, worth stopping by at this place!","location":{"latitude":-45.48956,"longitude":167.71012},"category":{"name":"Hostel"}},{"id":80851,"name":"Wildcamp on river","date_verified":"2019-01-08T00:00:00.000Z","description":"follow the dirt road (we did it in a 2WD in dry conditions no big deal) until the VERY end (past the farm - close the gates behind if necessary!) - there is a tiny DOC \"parking\" where you can leave your car (guess sleeping there inside your van would be possible as well...) - grab your camping gear and walk the trail for less than 1km. After the little downhill turn right onto the grass and search your way down to the river (before the big bend) - there is a small beach (with grass to put the tent) covered with trees, a beautiful spot for the night, out of view, calm except for wild river. \r\nDo NOT use during rain season!\r\nAlternative: hike up to the first DOC hut in the mountains, a good place to stay as well!","location":{"latitude":-41.7027,"longitude":172.32725},"category":{"name":"Wild Camping"}},{"id":81428,"name":"Gunn Camp on the Hollyford river","date_verified":"2019-01-09T00:00:00.000Z","description":"Historical camp that is very quirky. Davey Gunn, then his son, Murray ran the camp until just a few years ago. The place is the original Depression era family camp for building the Milford road. Many of the old cabins are still in use. Now run by a trust dedicated to preserve the past. Neat trails all around here. Glow worms, too. Funky place deep in the Fjordlands park. $20/ pp no power.  Showers heated with wood/ coal. ","location":{"latitude":-44.76136738,"longitude":168.13894548},"category":{"name":"Established Campground"}},{"id":81429,"name":"Crown Range Saddle free camp","date_verified":"2019-01-11T00:00:00.000Z","description":"Strickly self contained. No facilities just a parking lot with an incredible view. Lots of wind. At least 24 rigs in there by morning. A nice hike right out of the gate.","location":{"latitude":-44.99235981,"longitude":168.93917234},"category":{"name":"Informal Campsite"}},{"id":81430,"name":"Raspberry Flats Mt Aspiring Park","date_verified":"2019-01-11T00:00:00.000Z","description":"Donation camp. Amazing hiking from here. The camp is big but may be very busy during the day with day hikers. Portapotties and a tap with river water. Covered picnic table. Horrid long dirt road in with so much traffic. Lots of waterfalls on the way. Self contained only.","location":{"latitude":-44.51018432,"longitude":168.74423484},"category":{"name":"Established Campground"}},{"id":81431,"name":"Makarora Country Cafe'","date_verified":"2019-01-13T00:00:00.000Z","description":"Nice little camp for $16/pp for powered site. Great hot shower and clean. Laundry, kitchen ( very small) on site. Cafe closes at 4:20 so check in after that until 10 PM at the house out back ( duty manager). Camp is really just a side thing. The Cafe caters to tour buses from 11am til ' 3 pm. WiFi is 20 minutes then you can buy some BUT we never got it to work. No cell signal.\r\n","location":{"latitude":-44.26455276,"longitude":169.202768},"category":{"name":"Established Campground"}},{"id":81432,"name":"Jackson Bay","date_verified":"2019-01-14T00:00:00.000Z","description":"Just some pull offs along the shore. Not sure how long this kind of camping/ parking for the night will last. All of New Zealand seems hell bent on eliminating every free camp in the country. It's sad. \r\nPlease make the place better than you found it.\r\nIf you come out here, have some fish at The Craw Pot. Very yummy. Last order @ 7 pm.\r\nThere's a toilet across from the wharf.\r\nThere is no cell coverage.\r\nWe saw one Fjordland Crested penguin come to shore. Very cool \u0026 rare.","location":{"latitude":-43.9725689,"longitude":168.61401334},"category":{"name":"Wild Camping"}},{"id":81488,"name":"Okarito Community Camp","date_verified":"2019-01-16T18:05:19.599Z","description":"$15/ pp \u0026 $2 -4 min. shower. No power. Basically a parking lot\r\n crammed in. No space. Two toilets per sex for 100 people +. Beautiful place with cool trails. They say they want wild kiwis and birds BUT a cat wanders the camp which means death to the shore birds near by. No Wi-Fi even though they give you a password. Lots of sandflies but that comes with the territory. ","location":{"latitude":-43.22190955,"longitude":170.16333302},"category":{"name":"Established Campground"}},{"id":81517,"name":"JACKSON freedom campign Self Contained only","date_verified":"2023-05-16T00:00:00.000Z","description":"stunning little spot for fully self contained campers only.  beautiful set by the river with shade.","location":{"latitude":-45.08656,"longitude":169.27012},"category":{"name":"Informal Campsite"}},{"id":81612,"name":"Pukekura Lodge population 6","date_verified":"2019-01-17T00:00:00.000Z","description":"Sweet as. Roydon and Katie welcome you to explore some true New Zealand lifestyle. Very laid back but brimming with information about the land, the people and the 1080 dilemma. $10/ PP Even if you get a power site. Rooms look really comfortable with bug nets. Very small place. Perfect.","location":{"latitude":-43.00998383,"longitude":170.67276026},"category":{"name":"Established Campground"}},{"id":81625,"name":"Dulcie's Takeaways","date_verified":"2019-01-18T00:00:00.000Z","description":"Fish and chips shop.  Filled with locals because it's the best in the town.","location":{"latitude":-42.71950512,"longitude":170.95946789},"category":{"name":"Restaurant"}},{"id":81704,"name":"Shining Star Holiday park","date_verified":"2024-06-30T00:00:00.000Z","description":"Beautiful place right on the ocean. Hokitika is not far. Glow worm Dell right across the highway. One hears the waves. $20/ pp powered site including shower and unlimited WiFi. 0800 744646, shining@xtra.co.nz","location":{"latitude":-42.7072673,"longitude":170.97343568},"category":{"name":"Established Campground"}},{"id":81801,"name":"McMillan Road free Camp","date_verified":"2019-01-19T00:00:00.000Z","description":"Finally, at the end of our 3 months here in NZ, a series of free camps all along this wild west coast north. Right on the ocean, must be Self Contained. Please don't ruin the chance to keep these free camps by pooping in the bush. These camps are rare and tenuous.","location":{"latitude":-42.12940093,"longitude":171.32828632},"category":{"name":"Established Campground"}},{"id":81802,"name":"Paparoa National Park","date_verified":"2019-01-19T23:06:07.486Z","description":"Here is the trail to Pancake Rocks and blowhole. Head quarters for the Park. Information board gives tide info. Toilets and restaurant, gift shop here.","location":{"latitude":-42.11567516,"longitude":171.32954485},"category":{"name":"Tourist Attraction"}},{"id":81879,"name":"Greg's Granity Beach Views","date_verified":"2019-01-20T00:00:00.000Z","description":"Very special place. Greg has set up a nice camp here. It's a work in progress. One cool camp people have done in New Zealand are \"driveways\". You park up on a spot designated as a guest. $20.","location":{"latitude":-41.62786537,"longitude":171.85499468},"category":{"name":"Established Campground"}},{"id":81981,"name":"Kohaihai River DOC camp","date_verified":"2019-01-21T00:00:00.000Z","description":"wow whatta beautiful place!!! Right at the end of the Heaphy track and on the ocean. Nice and roomy camp spots. Can park up right on the beach or in big shady trees. Only one other camper and a cheeky Weka who stole our cheese right from under us when we were here\r\n Got cell signal. $8/ pp.","location":{"latitude":-41.10924962,"longitude":172.1018529},"category":{"name":"Established Campground"}},{"id":81987,"name":"Karamea Domain campground","date_verified":"2019-01-21T21:47:32.576Z","description":"Beautiful spot with powered sites. $10/ pp, $5 for power.  Washer$4. Walk way along the river right next to the camp. Cell signal. FYI can just buy a shower at the pub on the corner.","location":{"latitude":-41.25020918,"longitude":172.11543891},"category":{"name":"Established Campground"}},{"id":82190,"name":"Cola Bay","date_verified":"2019-01-19T00:00:00.000Z","description":"Lovely free camping site right next to the beach. No shade. ","location":{"latitude":-46.37902,"longitude":167.88452},"category":{"name":"Informal Campsite"}},{"id":82297,"name":"Little Whanganui Camp","date_verified":"2019-01-22T00:00:00.000Z","description":"Nice place. $15/ pp powered site. $10/ pp no power. They'll give you shower tokens with camping. But you can take a day shower $3 each.","location":{"latitude":-41.37622201,"longitude":172.07503276},"category":{"name":"Established Campground"}},{"id":82298,"name":"Hector Freedom Camp","date_verified":"2019-01-22T00:00:00.000Z","description":"Donation for the upkeep of the place, please. Look for the dolphins. Parking right next to the bridge and ocean. Nice to walk down on the beach. Bar just across the river. There is a cafe but not open for dinner. Great walking treks nearby. Store across the street closes at 5 pm. Please take your rubbish to the bigger towns. Water here is natural springs, can drink at your own risk, the locals do. Must be self contained or face a $200 fine.","location":{"latitude":-41.60622466,"longitude":171.87730989},"category":{"name":"Informal Campsite"}},{"id":82299,"name":"Maruia Hot Springs camp","date_verified":"2019-01-23T00:00:00.000Z","description":"Nice pools inside and out. Sauna, steam room. A bit posh, especially the price. Day pass $40, $25/ pp NO power! Yikes! If you stay you have access to the pools for 24 hours until the next day 9 pm. Stay late and go to one of the nearby DOC Camps. It's our last week here in NZ so what the hey. No cell signal.  Beautiful river valley with high mountains. ","location":{"latitude":-42.37881323,"longitude":172.3322225},"category":{"name":"Established Campground"}},{"id":82300,"name":"Marble Creek DOC camp","date_verified":"2019-01-24T00:00:00.000Z","description":"Great big meadow next to the forest surrounded by mountains.","location":{"latitude":-42.34896596,"longitude":172.2230633},"category":{"name":"Established Campground"}},{"id":82301,"name":"Deer Valley DOC camp","date_verified":"2019-01-24T00:00:00.000Z","description":"Pretty little camp right on a lovely stream. Can hear the highway. Just a  long drop loo no tap water. No rubbish. No one here. $8/ pp Would get 4 stars if not so close to the highway.","location":{"latitude":-42.40451125,"longitude":172.39691085},"category":{"name":"Established Campground"}},{"id":82302,"name":"Culverden Domain Camp","date_verified":"2020-09-21T11:30:29.000Z","description":"Funky As! This place is HUGE. Lots of space but only a couple of powered spots. $20 powered, $15 non. Access to shower, washer, kitchen another $5. ","location":{"latitude":-42.7760779,"longitude":172.84410268},"category":{"name":"Established Campground"}},{"id":82460,"name":"Hope River Pies","date_verified":"2019-01-27T00:00:00.000Z","description":"Super good local made pies. All kinds. The main shop only open a couple of days BUT the Co-op has them just a street up as well. Yummy ðŸ˜‹!","location":{"latitude":-43.60352291,"longitude":172.72156199},"category":{"name":"Restaurant"}},{"id":82516,"name":"Lytteton Boat Ramp Freedom Camp","date_verified":"2023-09-23T00:00:00.000Z","description":"Really cool spot with tons of space. No shade but a lovely breeze from the sea. Rubbish bins, water, toilet. Shower does not appear to work. Please take care of these places. Must be Self Contained. Make it better than when you came. Ta!","location":{"latitude":-43.61036452,"longitude":172.70579361},"category":{"name":"Established Campground"}},{"id":82871,"name":"Sabbis indian spice grill","date_verified":"2019-01-31T00:00:00.000Z","description":"Nice Hostel above indian restaurant where the food is good and cheap! Around 12nzd for a meal take away. More expensive if you eat in.\r\nThe dorm was very pleasant. Paid 30nzd for the dorm.","location":{"latitude":-35.10020214136233,"longitude":173.7797893212864},"category":{"name":"Hostel"}},{"id":82983,"name":"North wind lodge","date_verified":"2019-02-02T00:00:00.000Z","description":"Pleasant hostel close to the beach. Paid 32nzd for a 4 shared bedroom .","location":{"latitude":-34.73689282316224,"longitude":173.10626794600216},"category":{"name":"Hostel"}},{"id":83063,"name":"The Greenhouse Hostel","date_verified":"2019-02-02T00:00:00.000Z","description":"Wanna sleep in a former school? Here you go...\r\n30nzd in a dorm.\r\nThe owner was very pleasant!","location":{"latitude":-35.93888158447662,"longitude":173.8683396858851},"category":{"name":"Hostel"}},{"id":83064,"name":" Glinks Gully Beach","date_verified":"2019-02-03T00:00:00.000Z","description":"Nice beach with strong waves. For good skilled surfers... \r\nAlmost nobody at the beach...","location":{"latitude":-36.08810058332615,"longitude":173.86251132951477},"category":{"name":"Tourist Attraction"}},{"id":83485,"name":"Backpackers International - Rarotonga, Cook Islands","date_verified":"2019-02-07T00:00:00.000Z","description":"Hostel for low budget travelers.\r\n$20 NZD per person a night in dorms. Can have private rooms +$.\r\nNo camping is allowed on Rarotonga.\r\nWiFi is an additional charge.\r\nbackpackersinternational.com\r\nannabill@backpackers.co.ck\r\n+682-21847\r\nRarotonga backpackers may be a nicer place. it's right on the beach. we didn't check it out.","location":{"latitude":-21.24977582,"longitude":-159.82072204},"category":{"name":"Hostel"}},{"id":83514,"name":"Oppnoni Beach Holiday Park","date_verified":"2020-02-27T00:00:00.000Z","description":"$20 a night, all facilities, some shade, near the beach. ","location":{"latitude":-35.509058003224915,"longitude":173.39077861229933},"category":{"name":"Established Campground"}},{"id":83967,"name":"Vaka Lagoon Tours ","date_verified":"2019-02-12T00:00:00.000Z","description":"Boat n' BBQ, snorkeling trip. Get to wander on One Foot Island, and a couple other Motus. Saw the White Terns up close. Absolutely must do in the Cook Islands. The BBQ features homegrown foods. An experience in itself. Aitutaki's lagoon has to be one of the most stunning blue waters on our planet.","location":{"latitude":-18.84715767,"longitude":-159.76100771},"category":{"name":"Tourist Attraction"}},{"id":84275,"name":"Atiu Villas","date_verified":"2019-02-17T00:00:00.000Z","description":"A very neat place to stay \u0026 explore the island of Atiu. \r\nJackie can arrange a Bird/ eco tour with George,  \u0026 an Anatakitaki cave tour to see the rare Kopeka Swiftlets. Can also get a taste of the homegrown coffee and bush beer. ","location":{"latitude":-20.00746593,"longitude":-158.1086678},"category":{"name":"Hotel"}},{"id":84294,"name":"Motupipi","date_verified":"2019-02-11T00:00:00.000Z","description":"Grassground in front of kiwifruit platation.\n7nzd pp.\nNo facilities but still nice!","location":{"latitude":-40.85641056768676,"longitude":172.84991581940358},"category":{"name":"Established Campground"}},{"id":84295,"name":"Tutaki Bakery little Van","date_verified":"2020-07-01T00:00:00.000Z","description":"What a little bakery van!!! Bread is gorgeous and sandwiches yummy!!!! Good coffee tooo!","location":{"latitude":-41.80129060991276,"longitude":172.3252220919098},"category":{"name":"Restaurant"}},{"id":84296,"name":"Glow-Worm Dell","date_verified":"2023-06-10T00:00:00.000Z","description":"They're visible at night time only, a 2 minute walk from carpark. Turn right at the fork, they're everywhere, takes a couple of minutes to adjust to the darkness, once it's all dark, they'll glow even brighter.\r\nPlease respect the glow worms and their habitat by reducing noise and light to a minimum! Keep left so you don't bump into others.\r\n","location":{"latitude":-42.708422415929576,"longitude":170.9746803996814},"category":{"name":"Tourist Attraction"}},{"id":84610,"name":"Piha Domain Camp","date_verified":"2019-02-21T00:00:00.000Z","description":"Large grassy field. All size campers can fit. Common kitchen, showers, toilet, WiFi (only 30mb or 30min). All amenities. $20 NZD per head per night. Little pricy but only campground in town. Well kept. Skate park, kids play ground, tennis, basketball, bowling...","location":{"latitude":-36.95420636798902,"longitude":174.4724754990772},"category":{"name":"Established Campground"}},{"id":85353,"name":"Rarotonga Backpackers","date_verified":"2019-02-22T00:00:00.000Z","description":"Right on the beach with a pool, too. A bit a way from the road. You mostly hear the ocean.  A variety of accommodation here from $25 for a shared hostel like dorm to beach front bungalows@ $130/ night.","location":{"latitude":-21.23746859,"longitude":-159.82762129},"category":{"name":"Hostel"}},{"id":86055,"name":"Whitianga Harbourside Holiday Park","date_verified":"2019-03-09T00:00:00.000Z","description":"well organized, clean and friendly place with lots of sites. quiet surroundings, near the water.\r\nhas kitchen good bathrooms, laundry room.\r\n","location":{"latitude":-36.83989590236821,"longitude":175.7009964434017},"category":{"name":"Established Campground"}},{"id":87707,"name":"Allans Beach","date_verified":"2019-03-16T00:00:00.000Z","description":"Sea lions, a lot. after parking walk to the beach. To the left there they are. Just walk to the other side of the beach and see between the rocks on the sand. we saw about 12 animals. 9 sea lions and 3 seals.","location":{"latitude":-45.87182082472311,"longitude":170.69679671646347},"category":{"name":"Tourist Attraction"}},{"id":88810,"name":"Aroha Island Ecological Centre and Camping","date_verified":"2019-04-07T00:00:00.000Z","description":"very peacefull. nice track around the camping where the kiwi lives. at night they show them selves very often. The owner have red plastics for on your headlights to spot the kiwi at night.","location":{"latitude":-35.19363040782526,"longitude":174.00709791071753},"category":{"name":"Established Campground"}},{"id":88937,"name":"LongBay Motor Camp and Cabins ","date_verified":"2019-04-08T23:06:19.613Z","description":"Very nice Campground near the sea. With campkitchen, small shop and laundry. ","location":{"latitude":-36.74796679060603,"longitude":175.47645089232873},"category":{"name":"Established Campground"}},{"id":90762,"name":"South of Moleswoth Station ","date_verified":"2018-12-30T00:00:00.000Z","description":"Up a rough forestry road, 4WD required. Outside of Moleswoth Station so camping allowed. A little bit of road noise.  The wind was crazy strong all night. ","location":{"latitude":-42.46287355669072,"longitude":172.89109066144832},"category":{"name":"Wild Camping"}},{"id":94610,"name":"Kioreroa Rd Whangarei PDS","date_verified":"2019-06-01T00:00:00.000Z","description":"The destination is near the recycling station. There is also a drinking water.","location":{"latitude":-35.74422,"longitude":174.32797},"category":{"name":"Sanitation Dump Station"}},{"id":94611,"name":"Twilight Campsite - free camping area","date_verified":"2019-06-01T00:00:00.000Z","description":"Only accessible on foot. Great for fishing, walking, relaxing. Before setting out contact the DOC Kaitaia office for an uptade on the conditona of the tracks. \r\n- Water from the tap is rainwater\r\n- No rubbish bins on site\r\n- Free","location":{"latitude":-34.46178,"longitude":172.69842},"category":{"name":"Informal Campsite"}},{"id":94612,"name":"Maitai Bay Campsite","date_verified":"2020-03-11T00:00:00.000Z","description":"- DOC Campground\r\n- Adult: 13 NZD per night\r\n- Potable water - has to be boiled!\r\n- Cold shower\r\n- Boat ramps\r\n- Non-Flush toilet","location":{"latitude":-34.82958,"longitude":173.40567},"category":{"name":"Established Campground"}},{"id":96653,"name":"Kaiaua Boat Club","date_verified":"2019-06-16T00:00:00.000Z","description":"Freedom camping with toilets right by the water.\r\nWe were in a tent and camped 1 night.\r\nPub just over the road to get beer.\r\n\r\nRelatively busy even in winter, 7 camper vans but enough space to each have your own space ","location":{"latitude":-37.1093,"longitude":175.29846},"category":{"name":"Informal Campsite"}},{"id":96655,"name":"Paeroa RV Center","date_verified":"2019-06-17T00:00:00.000Z","description":"Lovely tent / RV campsite for $12pppp. Hot shower for $1. Camp kitchen available ","location":{"latitude":-37.36885077789181,"longitude":175.66539600507883},"category":{"name":"Established Campground"}},{"id":109268,"name":"Cullen Hidaway","date_verified":"2019-09-15T00:00:00.000Z","description":"A good and cosy patch hidden from the gravel road. I found the space covered in high and soft grass, so perfect for a night in a tent. You can even see the Bream Head through a gap in the bush. Please, be very careful, as it is at the boarder of the Kiwi Zone. Leave no trace! ","location":{"latitude":-36.047654,"longitude":174.502609},"category":{"name":"Wild Camping"}},{"id":109918,"name":"Camp Barker","date_verified":"2019-09-20T00:00:00.000Z","description":"Sorrounded by beautiful native bush, there are a few spots along the Barker Road between Moir Hill and Ahuroa Rd. There is no \"No Camping\" sign, neither at the entrance of the road nor on the TA trail notes. We found a very soft, levelled and sheltered camp.\r\nPlease, don't leave any trace and enjoy nature.","location":{"latitude":-36.475284,"longitude":174.602865},"category":{"name":"Wild Camping"}},{"id":109919,"name":"Remiger Road Conservation Area","date_verified":"2019-09-21T00:00:00.000Z","description":"Open DOC space sorrounded by farmland directly next to flowing river. Toilet available, but was tipped over when we passed through.","location":{"latitude":-36.5006008,"longitude":174.61871943},"category":{"name":"Established Campground"}},{"id":111723,"name":"Fishermenâ€™s Bend Campground ","date_verified":"2019-10-07T00:00:00.000Z","description":"Nice and very natural campground. Toilets available but otherwise more like a wild camp. Spots directly by the river but also in forest available. Plenty of options...\r\nSelf registration at entrance, 20$ per spot includes two persons.","location":{"latitude":-44.662791634951404,"longitude":170.36045017668079},"category":{"name":"Established Campground"}},{"id":114602,"name":"Hamiltons Gab car park","date_verified":"2019-04-07T00:00:00.000Z","description":"Bigger green area(car park) directly at the black beach. Kind of long way from Auckland (add 30min), but worth it. WC, cold shower and rubbish facilities. ","location":{"latitude":-37.13021992243559,"longitude":174.57438997009262},"category":{"name":"Informal Campsite"}},{"id":116688,"name":"Te Arai ","date_verified":"2022-12-04T00:00:00.000Z","description":"Te Arai parking, partly for free, partly managed by Auckland Council (official overnight stay). Toilets and possibilities to empty toilet cassette. Nice beach, possibilities to surf. ","location":{"latitude":-36.159137628883826,"longitude":174.64584963030498},"category":{"name":"Informal Campsite"}},{"id":117318,"name":"Thames SC Freedom Camping","date_verified":"2023-04-07T00:00:00.000Z","description":"Free large parking next to rugby field. Overnight stay officialy allowed. large grass fields next to the parking and rugby field. Toilets available but closed during our stay 11/2019. 2 nights max only allowed 5pm til 9am","location":{"latitude":-37.151871245626154,"longitude":175.54960577744626},"category":{"name":"Informal Campsite"}},{"id":117600,"name":"Cooks Beach Freedom Parking","date_verified":"2020-03-14T00:00:00.000Z","description":"Cooks Bay and Purangi harbour are beautiful. There is freedom camping allowed in specified areas for certified self contained vehicles only. Gas griddle available for cooking under the pines by the river.\r\nCome early, only a few official spots available. ","location":{"latitude":-36.83862,"longitude":175.75866},"category":{"name":"Informal Campsite"}},{"id":118313,"name":"Port Jackson Campsite","date_verified":"2020-03-20T00:00:00.000Z","description":"At the northern tip of the Coromandel Peninsula, this campsite is right next to the beach. At the eastern end of the campsite, the Muriwai Coastal Walk leads up the headland towards Wharekaiatua Pa and along the coast, with stunning coastal views. \r\n\r\nWe were lucky enough to spot Dolphins during our weekend stay - truly a great spot to camp. \r\n\r\nAccess is via a narrow gravel road, but it is suitable for all varieties of camping vehicles.  \r\n\r\nLike many places in the Coromandel, peak season (school holidays) over summer means spots will be very limited. November/Early December, we found it to be not so busy and far more enjoyable.","location":{"latitude":-36.48208,"longitude":175.34436},"category":{"name":"Established Campground"}},{"id":121070,"name":"Pelorus Bridge South Isl. ","date_verified":"2020-01-05T00:00:00.000Z","description":"Stay either the established campground or pay $8 for the tent site across the road at a beautiful grassy spot beside the river. Swim and dive off the rocks to the left at sandy beach. West side of bridge has a trail with a suspension bridge. \r\n This is a fabulous spot. Always room. ","location":{"latitude":-41.30090717074878,"longitude":173.57586030096405},"category":{"name":"Established Campground"}},{"id":121343,"name":"Custom House","date_verified":"2020-01-07T00:00:00.000Z","description":"Great hostel central location between shopping and waterfront. About $25 for a bunk. Good kitchen showers friendly atmosphere. Free wifi","location":{"latitude":-41.262921430746474,"longitude":173.27058146875},"category":{"name":"Hostel"}},{"id":121346,"name":"Quinneys bush","date_verified":"2020-01-07T22:37:05.931Z","description":"Big campsite vehicles and tents. Really good for kids but quiet at night. Swimming hole 5 min showers. Was $18 tent","location":{"latitude":-41.45854838242841,"longitude":172.8118418119776},"category":{"name":"Established Campground"}},{"id":121604,"name":"Rest area","date_verified":"2020-01-09T00:00:00.000Z","description":"Road behind has plenty of spots. No fire signs.","location":{"latitude":-41.69804122190191,"longitude":172.5032434603373},"category":{"name":"Informal Campsite"}},{"id":121808,"name":"Trip Inn","date_verified":"2020-01-12T00:00:00.000Z","description":"Nicest hostel Iâ€™ve ever seen. $26/8 bunk. Pay a little more for 4 bunk. Piano guitar pool table free bicycles bbq good beds. Free good wifi. Best in town by far","location":{"latitude":-41.75576769340637,"longitude":171.60147468152553},"category":{"name":"Hostel"}},{"id":121986,"name":"Marahau Beach Camp","date_verified":"2020-06-21T00:00:00.000Z","description":"Ok place, almost fully booked in January when we arrived. $40 for 2 people, 2 motos and one tent packed in with everyone else. Kitchen and bathrooms are clean and nice, Wi-Fi is slow, or a beach but tidal water across the street.","location":{"latitude":-41.00534131284803,"longitude":173.00882530398667},"category":{"name":"Established Campground"}},{"id":122230,"name":"Global Village","date_verified":"2020-01-16T00:00:00.000Z","description":"Anther highly rated bbh hostel. Beautiful carvings good kitchen bathrooms and rooms 32 four bunk or $20 for tent. Free bikes and kayaks guitar piano. Best in town","location":{"latitude":-42.45865368208335,"longitude":171.2008238478494},"category":{"name":"Hostel"}},{"id":122421,"name":"Seaview lodge","date_verified":"2020-01-18T00:00:00.000Z","description":"Old asylum turned into hostel tent and vehicles $15 rooms $25 and $45 deluxe kitchen etc. Great views of ocean 1/2 km away","location":{"latitude":-42.70755004819556,"longitude":170.9759928965155},"category":{"name":"Hostel"}},{"id":123226,"name":"waipoua campground ","date_verified":"2020-01-23T00:00:00.000Z","description":"Excellent campground, former doc, but now owned by the local Maori tribe. 20pp to camp, 25pp in cabins, 10 for a guided evening walk through the forest past the Kauri trees. ","location":{"latitude":-35.652272116397405,"longitude":173.55216512442576},"category":{"name":"Established Campground"}},{"id":125241,"name":"Lake Okareka Campsite","date_verified":"2020-02-09T00:00:00.000Z","description":"Lovely campsite on the shore of the lake not far from Rotorua. Drop toilets, covered tables and chairs.  $15 pppn","location":{"latitude":-38.16182097885758,"longitude":176.36124836280942},"category":{"name":"Established Campground"}},{"id":125242,"name":"Te Kauwhata Domain","date_verified":"2020-02-11T00:00:00.000Z","description":"Authorised camping in the car park and fields of Te Kauwhata. There's a huge field for tents, some electric points (didn't check if working), 24 toilet facilities and a washing up station.  You do not need Freedom Camping certification to stay here. \r\n\r\n The site is on a hill so views in all directions. Quiet place to overnight. $5 contribution recommended as this is provided by the local town, which has shops etc for most things. ","location":{"latitude":-37.40642,"longitude":175.14803},"category":{"name":"Informal Campsite"}},{"id":125276,"name":"West haven Marina","date_verified":"2020-02-13T00:00:00.000Z","description":"Campervan parking close to the CBD of Auckland. Need to have self containment but bathrooms and showers available. $40 per RV. Limited spaces for vehicles over 5m. Plenty of space for vehicles less than 5m. ","location":{"latitude":-36.843224060721695,"longitude":174.75042091682553},"category":{"name":"Established Campground"}},{"id":125369,"name":"Bucklands Beach","date_verified":"2020-02-13T22:05:11.693Z","description":"The Howick peninsula is beautiful and seems to be free of camping regulations, so you can find lots of waterfront spots. All the locals are chatty and friendly. While I have marked 'no' to a lot of the amenities these can be found. There are plenty of public toilets around, places to fill up with water, there is a waste water station in Half Moon Bay, a  very good supermarket (First Choice), several restaurants, a Burnsco, pharmacy etc.  There is also and outside shower at Bucklands Beach Reserve toilets (near No. 45)  \r\n\r\nTo keep the status quo, we need to be considerate to the people who live here. ","location":{"latitude":-36.8610112555325,"longitude":174.89927605725825},"category":{"name":"Wild Camping"}},{"id":125394,"name":"Tui Base Camp","date_verified":"2020-02-14T00:00:00.000Z","description":"Tui Base camp is for tents and caravans and has even enough rooms on different levels. Nice public room and kitchen, clean and well mentained campground. Supermarket next to the ground.\r\nFor a tent and one person its 15 Nzd, plus 10 Nzd for every extra person.","location":{"latitude":-46.13583333333333,"longitude":167.689965},"category":{"name":"Established Campground"}},{"id":125474,"name":"Drinking Water","date_verified":"2020-02-15T00:00:00.000Z","description":"Water fountain near a Swimming pool. the fountain is inside the hall where the pool is.","location":{"latitude":-45.804911666666676,"longitude":167.67630666666665},"category":{"name":"Water"}},{"id":125608,"name":"Possum Lodge","date_verified":"2020-08-20T22:21:04.210Z","description":"Nice small campground next to the lake with nice owners. Cheaper than the other bigger campground. 38 Nzd for a tent and 2 persons.","location":{"latitude":-45.56678166666667,"longitude":167.60430000000002},"category":{"name":"Established Campground"}},{"id":125750,"name":"Athol Camping","date_verified":"2020-02-17T00:00:00.000Z","description":"Small campground for Campervans and tents. Very basic equipement, small kitchen, no laundry. Powered for 2 persons 30 Nzd, unpowered (tent) 10 dollar per person. Very nice nature around, beautiful river just 200m away.","location":{"latitude":-45.51470333333334,"longitude":168.58290833333334},"category":{"name":"Established Campground"}},{"id":125924,"name":"Howick Beach","date_verified":"2022-11-15T00:00:00.000Z","description":"A nice place to stop the night. There are toilets, which close about 10pm, a shower in the ladies and one outside as well. Relatively quiet night, security lights next to the coastguard station.  No apparent regulations to restrict camping. ","location":{"latitude":-36.89262628555298,"longitude":174.94110577739775},"category":{"name":"Wild Camping"}},{"id":126853,"name":"Dargaville Museum","date_verified":"2020-02-27T22:23:27.851Z","description":"You can camp in the park grounds of the museum up on the hill and enjoy the surroundings. They have the masts of the Rainbow Warrior up here. Its $15 per van and you pay in the museum, which has an eclectic collection, which we enjoyed. if the museum is closed, pay in the morning, they open at nine. There are toilets, open all night a d a dump station. There are picnic tables and shade if required. ","location":{"latitude":-35.95885222312063,"longitude":173.86339050717652},"category":{"name":"Established Campground"}},{"id":126883,"name":"NZ Customs ","date_verified":"2020-02-21T00:00:00.000Z","description":"NZ Customs at the Airport \r\n\r\nOpen from Monday to Friday\r\n\r\n08:30am to 4:30pm\r\n\r\nBring the original CdP, Passport and the bill of lading with you\r\n\r\n","location":{"latitude":-37.002294,"longitude":174.788796},"category":{"name":"Customs and Immigration"}},{"id":127080,"name":"Lakefront Holiday Park","date_verified":"2020-02-22T00:00:00.000Z","description":"Holiday Park for Campers and tents. lots of cyclists there, cheaper than the other campgrounds in Wanaka. 42 Nzd for 2 persons in a tent.","location":{"latitude":-44.70182499999999,"longitude":169.12809500000003},"category":{"name":"Established Campground"}},{"id":127286,"name":"Geraldine Top 10 Holidaypark","date_verified":"2020-03-01T00:00:00.000Z","description":"Nice campground with kitchen and wifi.\r\n38 Nzd for 2 persons in a tent.","location":{"latitude":-44.09417,"longitude":171.2433933333333},"category":{"name":"Established Campground"}},{"id":127287,"name":"Rakaia Gorge Camping","date_verified":"2020-03-02T00:00:00.000Z","description":"Smaller Campground with a fantastic view over the riverbank and the gorge. Cheap, 10 Nzd for a person per night in a tent. Highly recomanded, maybe the best cheaper campground in New Zealand.","location":{"latitude":-43.519596666666665,"longitude":171.65520666666666},"category":{"name":"Established Campground"}},{"id":127472,"name":"Rangiora Eco Holiday Camp","date_verified":"2020-03-03T00:00:00.000Z","description":"Cheaper Campground with small pool, kitchen, nice staff.\r\n20 Nzd for two persons in a tent, cheap cabins available. Internet 5Nzd extra.","location":{"latitude":-43.29283333333333,"longitude":172.56164500000003},"category":{"name":"Established Campground"}},{"id":127682,"name":"Snells Beach","date_verified":"2020-03-05T00:00:00.000Z","description":"Certified Self-contained vehicles can park at Snells Beach carpark for a maximum of 3 nights. A sandy beach with views out to Kawau Island.  There are shops and restaurants in the town above the beach. ","location":{"latitude":-36.41995,"longitude":174.73001},"category":{"name":"Informal Campsite"}},{"id":127684,"name":"Sunburst Reserve Snells Beach","date_verified":"2022-12-06T00:00:00.000Z","description":"Another Certified Self-Contained parking spot at the other end of Snell's Beach. There are 5 spaces available from 5pm-10am. External shower available. \r\n\r\nThis is also the place people kite from, shallow and flat. ","location":{"latitude":-36.41345,"longitude":174.72902},"category":{"name":"Informal Campsite"}},{"id":128147,"name":"Motor Camp Waiau","date_verified":"2020-03-04T00:00:00.000Z","description":"Campground with affordable small cabins, 48 Nzd for two persons, in a tent 12Nzd person. Good internet, nice stuff, small supermarket in village, last one before Kaikoura.","location":{"latitude":-42.652696666666664,"longitude":173.03988833333332},"category":{"name":"Established Campground"}},{"id":128705,"name":"Matarangi Harbour","date_verified":"2020-03-15T00:00:00.000Z","description":"Official Freedom campsite for certified self-contained vehicles. Nice spot on the harbour","location":{"latitude":-36.73636,"longitude":175.6468},"category":{"name":"Informal Campsite"}},{"id":128783,"name":"Little Bay Reserve","date_verified":"2020-03-16T00:00:00.000Z","description":"Space for about 5 medium campers at the beach parking lot, for those with CSC.   Beautiful little beach with Pohutakawa trees for shade ","location":{"latitude":-36.603845288045704,"longitude":175.54747444577515},"category":{"name":"Informal Campsite"}},{"id":128795,"name":"328 Campground","date_verified":"2020-03-11T00:00:00.000Z","description":"Small camoground with nice owner, chicken roaming around, a bit older, slow wifi. Cheap (30Nzd for 1 or 2 persons in a tent) in comparison to other campgrounds.","location":{"latitude":-41.118355,"longitude":173.00990833333333},"category":{"name":"Established Campground"}},{"id":129049,"name":"MacDonald Recreation Reserve","date_verified":"2020-03-19T00:00:00.000Z","description":"Freedom camping for Certified self contained vehicles only. Quiet spot right on a stony bay. Probably good for fishing, some small trees offer shade. No limits shown on number of campers or nights allowed. No facilities. \r\n\r\nThere are three DoC sites north of here (forgot to add them)  Fantail Bay, Port Jackson and Fletchers Bay. All great. Port Jackson has a long sandy beach. all have showers, drop toilets and water (must boil)  Port Jackson has a sheltered kitchen area with tables and benches and gas griddle for use.  ","location":{"latitude":-36.58059,"longitude":175.40632},"category":{"name":"Informal Campsite"}},{"id":129054,"name":"Bulls Motel and Holiday Park","date_verified":"2020-03-18T00:00:00.000Z","description":"A bit older Campground with lots of Cabins. 17Nzd per person in a tent. Facilities old and medium clean.","location":{"latitude":-40.18433166666667,"longitude":175.38782833333335},"category":{"name":"Established Campground"}},{"id":129105,"name":"42b Hostel","date_verified":"2020-03-20T00:00:00.000Z","description":"Nice and cheap hostel with clean facilities, operated by a german family. Breakfast included. You can even put your tent in their garden.","location":{"latitude":-39.926675,"longitude":175.04726166666666},"category":{"name":"Hostel"}},{"id":129106,"name":"Raetihi Holiday Park","date_verified":"2020-03-21T00:00:00.000Z","description":"Normal Campround with Cabins and space for campervans. Wifi only for powered sites and cabins. 15Nzd per Person in a tent or a car.","location":{"latitude":-39.430171666666666,"longitude":175.28272500000003},"category":{"name":"Established Campground"}},{"id":129504,"name":"Eketahuna Camping ","date_verified":"2020-03-06T00:00:00.000Z","description":"Nice place with free hot shower and well stocked kitchen. Laundry 2nzd. \r\nPerfect place for a night before Wellington.\r\n","location":{"latitude":-40.65168689,"longitude":175.70326886},"category":{"name":"Established Campground"}},{"id":130847,"name":"Small yellow and red caravan ","date_verified":"2020-05-28T00:00:00.000Z","description":"Great little food truck serving great fish and chips along with lots of other options including paua. Opposite the old Tavern. We stopped at lunchtime and there was a constant flow of customers. ","location":{"latitude":-37.89189,"longitude":178.31715},"category":{"name":"Restaurant"}},{"id":130996,"name":"Pilot Bay","date_verified":"2020-06-02T00:00:00.000Z","description":"Nice free camping spot as the estuary meets the sea. Picnic tables. Nice and quiet.","location":{"latitude":-39.06041267327964,"longitude":177.41494269110262},"category":{"name":"Wild Camping"}},{"id":131515,"name":"The Vineyard Driveway","date_verified":"2020-06-07T00:00:00.000Z","description":"Great little place to camp in a paddock next to the farmhouse in a vineyard. Ruth will welcome you. Book either through campermate or call 0276306007 or email jackdavid01@xtra.co.nz. Please don't just turn up as this is a working farm and they only have space for one vehicle. $25 per night. \r\n\r\nGreat place for visiting the surrounding vineyards and Ruth can rent you a bike. ","location":{"latitude":-39.64522706810385,"longitude":176.71142457984388},"category":{"name":"Established Campground"}},{"id":131516,"name":"Seal Colony","date_verified":"2021-01-20T00:00:00.000Z","description":"On the road out to the lighthouse there is a sign and turn off for Matakitai-a-Kupe Reserve. Around this rocky outlet is a large colony of seals. Be careful where you step as the multitude of seals and pups that call this place their home are often concealed behind rocks and itâ€™s often incredibly windy along this coast. Give them space and try not to disturb them. Enjoy!","location":{"latitude":-41.61037,"longitude":175.27389},"category":{"name":"Tourist Attraction"}},{"id":131746,"name":"Totaranui DOC","date_verified":"2020-06-22T00:00:00.000Z","description":"Lovely DOC site right on the beach and with plenty of shorter and longer walking options for those interested in walking Abel Tasman. The road across Pigeon Saddle is very windy and narrow in parts but usual family campervans make it so larger rigs should. \r\n\r\nNot sure how much it costs as it's free with the DOC pass. \r\n\r\nIt gets booked out 6 months in advance in the height of summer (Christmas to end of Jan), so you may want to check availability ahead (+64 35469339. www.doc.govt.nz), but in June it was empty and beautiful. ","location":{"latitude":-40.82524531055242,"longitude":173.0045518744737},"category":{"name":"Established Campground"}},{"id":132129,"name":"Patarau River eachfront ","date_verified":"2020-06-25T00:00:00.000Z","description":"Side road/track leads to beachfront field. Ideal for freedom camping. No facilities.","location":{"latitude":-40.64586323685944,"longitude":172.43134134449065},"category":{"name":"Wild Camping"}},{"id":132130,"name":"PuPu Hydro Wallway","date_verified":"2020-06-26T00:00:00.000Z","description":"A really interesting walk through the forest. A gold mining water race used as a sluice for gold-mining was built in the hillside in 1901 and the water rights were later used to bring the first power to the Golden Bay area in 1929. Walk the zigzag path to the top of the hill, see the penstock and follow the race the 1.7km to the river. The walk down offers great views out to Golden Bay, waterfalls and plenty of places to picnic. If you're interested in engineering and enjoy a good walk (just under 7km loop), you will enjoy this. You also get to see the machinery that works this power station and read about its restoration following a power short in 1981. ","location":{"latitude":-40.855921944603324,"longitude":172.73882693611085},"category":{"name":"Tourist Attraction"}},{"id":133678,"name":"East Streat","date_verified":"2019-11-29T00:00:00.000Z","description":"Multiple cuisine options with a nice overall ambiance. If you come here on the weekdays, post 5pm, there is plenty of street-parking available. \r\nOn weekends, you may have to park a little away from this street.","location":{"latitude":-38.13364,"longitude":176.25152},"category":{"name":"Restaurant"}},{"id":133704,"name":"Lake Alexandrina","date_verified":"2020-07-26T00:00:00.000Z","description":"Beautiful place on the lake, amidst a load of classic NZ bachs.  We were the only people camping here, despite multitudes in Tekapo.  There is a gate on the main road and the sign says 4WD only but the gravel road down is well maintained and I think this is to deter most campers. \r\n\r\nFishing on the lake (need a licence, available at the post office in Tekapo)  Basic toilets and a shower block - bring your own water/bucket. \r\n\r\n$20 per vehicle per night. ","location":{"latitude":-43.97033872548491,"longitude":170.44434087350965},"category":{"name":"Established Campground"}},{"id":133903,"name":"McKee Memorial Reserve Camping Ground","date_verified":"2020-02-06T00:00:00.000Z","description":"Large seaside low key low cost, camping ground.\r\nToilets, water, showers, beach.","location":{"latitude":-41.21443,"longitude":173.0838},"category":{"name":"Established Campground"}},{"id":133916,"name":"Lake Poaka","date_verified":"2024-01-20T00:00:00.000Z","description":"DOC campsite for CSC vehicles, on Lake Poaka, next to the canal. Beautiful spot surrounded by mountains. There is also Freedom Camping at Lake Wardell, a little further along the Canal Road. which has a 3-night minimum. ","location":{"latitude":-44.206415195949376,"longitude":170.09415828622878},"category":{"name":"Established Campground"}},{"id":134040,"name":"Caltex Kurow","date_verified":"2020-07-29T00:00:00.000Z","description":"They will refill your gas bottles here, including the smaller ones as long as they are still legal!","location":{"latitude":-44.73254864104092,"longitude":170.46994473785162},"category":{"name":"Propane"}},{"id":134101,"name":"Oamaru Top 10","date_verified":"2020-08-01T00:00:00.000Z","description":"Lovely campsite within walking distance of town. Direct access to the park which has an aviary, ponds, ducks, ponds (no bread just grain) fernery and play park. We really like Oamaru - everyone was really friendly, we got to see the yellow eyed penguins (go early as they come in about 2 hours before dark)  Also  had great food here (Badger \u0026 Mackerel, Cucina and Harbour Street Collective Cafe)","location":{"latitude":-45.097370306029916,"longitude":170.95481813885272},"category":{"name":"Established Campground"}},{"id":134694,"name":"Katiki Beach North Reserve","date_verified":"2023-05-09T10:15:55.000Z","description":"A Freedom Camping spot for CSC vehicles, right next to the sandy beach. ","location":{"latitude":-45.40014187339693,"longitude":170.83968741819263},"category":{"name":"Informal Campsite"}},{"id":134742,"name":"Kinloch DOC Campsite","date_verified":"2020-08-09T00:00:00.000Z","description":"DOC Camping right on the lake, beautiful views of the mountains, picnic benches, Kinloch Lodge for food and drinks next door, little pier for fishing. $15 pppn (adults)  \r\n\r\nPhone and 4G reception here was surprisingly good. \r\n\r\nFurther down the road, just out of Kinloch , you can camp responsibly i.e. freedom camping for Certified Self Contained vehicles and while there are not many spaces along the road to Greenstone to park up, you can park and camp the night at the Greenstone carpark where there are various walks, including the very beautiful 16km loop track to Rere Lake - highly recommended. There are also drop toilets at Greenstone. ","location":{"latitude":-44.843631028197706,"longitude":168.35017240606248},"category":{"name":"Established Campground"}},{"id":134810,"name":"Sylvan DOC Campsite","date_verified":"2020-08-10T00:00:00.000Z","description":"One of the prettiest campsites, well laid out in a flat valley, next to the river with views all around. Plenty of sunshine, great in winter.  There's a walk to Sylan Lake (2.2 km one way) but sadly it was closed when we were here.","location":{"latitude":-44.72649732604623,"longitude":168.3143298793584},"category":{"name":"Established Campground"}},{"id":135060,"name":"Paradise Trust","date_verified":"2020-08-12T00:00:00.000Z","description":"This is an amazing place where you can rent rustic cabins and enjoy a little time relaxing in beautiful surroundings with great views of the mountains. Set up as a trust to enable ordinary people to enjoy a little of early pioneer life. Some cabins have outside fire baths which are amazing. This place is not expensive, and I would highly recommend supporting it. ","location":{"latitude":-44.72379998769611,"longitude":168.36424595676363},"category":{"name":"Hotel"}},{"id":135559,"name":"Man of the Trees, Kingston","date_verified":"2023-10-10T00:00:00.000Z","description":"Camp spot for CSC vehicles right by the lake. Beautiful spot. Pit toilets. Big space can turn up any time but there is limited flat spots.","location":{"latitude":-45.2943,"longitude":168.75925},"category":{"name":"Informal Campsite"}},{"id":136337,"name":"Waituna Lagoon","date_verified":"2020-09-03T00:00:00.000Z","description":"DOC allows camping here for CSC vehicles. Nice spot by the edge of the lagoon and the beach. No facilities.   There is a drop toilet at the start of the loop walk, which starts about 1km from here. ","location":{"latitude":-46.56909277662635,"longitude":168.67395057342947},"category":{"name":"Wild Camping"}},{"id":136513,"name":"Brighton Domain","date_verified":"2020-12-22T00:00:00.000Z","description":"Free camping for CSC vehicles, right by the beach. Nice spot, picnic facilities and public toilets. Child playground and rugby pitch","location":{"latitude":-45.94793151598424,"longitude":170.33272518776357},"category":{"name":"Wild Camping"}},{"id":136633,"name":"Portobello Village  Tourist Park","date_verified":"2020-09-08T00:00:00.000Z","description":"Full Services camp ground. Great facilities and very friendly owners.  fully equipped kitchen, nice oven and laundry. close to the pub and cafes and a convenience store. Excellent wifi.","location":{"latitude":-45.84280086681247,"longitude":170.65058497712016},"category":{"name":"Established Campground"}},{"id":136707,"name":"Waihao Box","date_verified":"2020-09-09T00:00:00.000Z","description":"Free camping for CSC vans, a beautiful spot where the river Waihao meets the ocean. check out the 1900s box built to ensure the cobbled beach didn't hinder the river's flow. Enter via Horsnells Road.  There is no bridge on the maps.me route we were originally given. ","location":{"latitude":-44.77394,"longitude":171.17115},"category":{"name":"Informal Campsite"}},{"id":138050,"name":"Culverden Freedom Camping","date_verified":"2020-09-21T00:00:00.000Z","description":"Freedom camping for 2 CSC vehicles. Grassy spot, covered picnic tables, playground. Right in town so close to shops and cafes. Dump station, fresh water and toilets close by. ","location":{"latitude":-42.77451200410724,"longitude":172.8467866871506},"category":{"name":"Established Campground"}},{"id":138249,"name":"Clyde Quay Car park","date_verified":"2024-01-15T00:00:00.000Z","description":"A great place to park, leave your van for the day, wander around the city, enjoy a meal and then crash. It's $30 for 24 parking, and while there are free freedom camping spots further out, I think this is good value if you want to spend the day in the city itself. Te Papa is a short walk, nice cafe and free wifi, there is also a Sunday market next to it. \r\n\r\nThere are toilets nearby if needed (closed 11pm -7am) and the Freyburg Center is a quick walk where you can get a shower ($3). Cafes also near Freyburg center. ","location":{"latitude":-41.291158804669976,"longitude":174.78593403473496},"category":{"name":"Informal Campsite"}},{"id":139007,"name":"Waikanae Estuary Scientific Reserve","date_verified":"2020-10-12T00:00:00.000Z","description":"Freedom camping for certified self contained vehicles. maximum space for 4 vehicles. no one here when we came.  Right next to the beach and the reserve and all the birdlife on the estuary. Kapiti Island looms in front. A perfect spot. ","location":{"latitude":-40.871882094070315,"longitude":175.00812261365354},"category":{"name":"Informal Campsite"}},{"id":139008,"name":"Cape Egmont Boat Club","date_verified":"2020-10-19T00:00:00.000Z","description":"Private camping ground right next to Cape Egmont Lighthouse.   $10 per night per site. Nice location. ","location":{"latitude":-39.24357796087861,"longitude":173.77578662708402},"category":{"name":"Established Campground"}},{"id":139091,"name":"Te Wera Valley Lodge","date_verified":"2020-10-25T00:00:00.000Z","description":"Great campsite along the Forgotten Highway Route 43.  Quiet spot, good facilities, would be great for kids - mini assault course.  Also very strong wifi. Unpowered site was $26 for two people. ","location":{"latitude":-39.22967904713005,"longitude":174.59626749157906},"category":{"name":"Established Campground"}},{"id":139092,"name":"Manawhero campsite ","date_verified":"2020-10-26T23:45:57.720Z","description":"DOC Camp site just outside outside Ohakune. Peaceful location in the bush, next to a river with views of Ruapehu. loved it. ","location":{"latitude":-39.391954955644906,"longitude":175.42963142506778},"category":{"name":"Established Campground"}},{"id":140287,"name":"Palmerston North Holiday Park","date_verified":"2020-11-28T00:00:00.000Z","description":"Established campground on the edge of town close to public swimming pool, botanical garden and large sports park. Powered sites, tent sites and cabins. Tent space $30. Park is in a nice area. ","location":{"latitude":-40.37124162077938,"longitude":175.61038875968717},"category":{"name":"Established Campground"}},{"id":140584,"name":"Riwaka-Sandy Bay Road","date_verified":"2020-12-02T00:00:00.000Z","description":"Very basic paid campsite $10 pp/pn. Amazing views over Nelson/Tasman area. Hot showers, flushing toilets and an old food truck with a functioning kitchen. Water available. Plenty of space, close to Abel Tasman National Park. ","location":{"latitude":-41.05310952760377,"longitude":172.9817173911007},"category":{"name":"Established Campground"}},{"id":140613,"name":"Kawatiri Beach ","date_verified":"2023-02-12T00:00:00.000Z","description":"Certified legal freedom camping spot for self contained vehicles. Enough spaces for 30. Right next to the beach just out of Westport. Toilet and sheltered picnic table. ","location":{"latitude":-41.7344,"longitude":171.60547},"category":{"name":"Informal Campsite"}},{"id":140653,"name":"MacDonalds Recreation Area","date_verified":"2023-06-11T00:00:00.000Z","description":"DOC maintained camping area. Nice big quiet area with plenty of space. Next to highway but not too much traffic noise. Plenty of clean flushing toilets, running water, sinks, tables and shelter. $16pp/pn self registration. \r\n\r\n2-minute walk to Ottoâ€™s Corner campsite where there is access to the lake which is very nice at sunset. ","location":{"latitude":-43.29601,"longitude":170.22457},"category":{"name":"Established Campground"}},{"id":140654,"name":"Ottoâ€™s Corner","date_verified":"2020-12-08T00:00:00.000Z","description":"Right next to MacDonald Creek Campsite and basically the same except the mobile reception is a little better here and there is lake front access. DOC-managed with flushing toilets, picnic tables and shelters. Self-registration ($15pp/pn as of 2020)\r\n\r\nAs always, be prepared with insecte repellant ;)","location":{"latitude":-43.29772247005561,"longitude":170.22333104179262},"category":{"name":"Established Campground"}},{"id":140915,"name":"Cameron Flat","date_verified":"2023-10-13T00:00:00.000Z","description":"Lovely views over the mountains. Large area with toilets, running water, shelter and tables. Space for tents too. Heavy sandfly presence but the sunset is epic. Literally across the road from the Blue Pools carpark. DOC campsite - $10 pp/pn self-registration. Full phone reception. ","location":{"latitude":-44.161615138914584,"longitude":169.28705443643898},"category":{"name":"Established Campground"}},{"id":140916,"name":"Shower at Caltex","date_verified":"2020-12-13T00:00:00.000Z","description":"Coin-operated shower at the Caltex gas station. Thereâ€™s also a laundromat here with wifi. \r\n\r\nShower takes 5 x $1 coins for a five minute hot shower. There is a money changing machine in the laundromat. ","location":{"latitude":-44.69438244127174,"longitude":169.13974123091356},"category":{"name":"Showers"}},{"id":140917,"name":"Te Anau Lakefront Backpackers","date_verified":"2020-12-16T00:00:00.000Z","description":"Backpackers Hostel right on the lake front, within easy walking distance of the DOC Visitor center so a good spot if you are doing one of the Great Walks or exploring Fiordland National Park. Provides dorms, cabins or tent space (although lawn space for tents is quite small). Has a laundry ($4 wash/$4 dry), good kitchen, nice outdoor dining and bbq areas, fast free unlimited wifi. ","location":{"latitude":-45.42008845605461,"longitude":167.71553333864333},"category":{"name":"Hostel"}},{"id":141068,"name":"Cascade Creek","date_verified":"2023-11-05T00:00:00.000Z","description":"Self-registration DOC campground, closest you can get to Milford Sound. Really big space with several pit toilets scattered across the park. Some spaces have picnic tables and is one of the few DOC camps where fires are permitted in the provided fire pits.  Youâ€™ll need to bring your own firewood though. \r\n\r\nOne shelter for cooking but no running water anywhere in the camp. No phone service. No dogs permitted. \r\n\r\n$15 pp/pn as of 2020. DOC ranger will come round in the evening to check. ","location":{"latitude":-44.895435,"longitude":168.076836},"category":{"name":"Established Campground"}},{"id":141297,"name":"Visitor Center","date_verified":"2020-12-29T00:00:00.000Z","description":"Water fountain just outside the Mt Cook Visitor Center with two taps so you can drink or fill up large receptacles ","location":{"latitude":-43.73334619686355,"longitude":170.0951441658382},"category":{"name":"Water"}},{"id":141298,"name":"Aoraki Mt Cook Visitor Centre","date_verified":"2020-12-29T00:00:00.000Z","description":"Large Visitor Centre with free wifi, water fountain, toilet as well as lots of information about the park. 25min walk from the campground. ","location":{"latitude":-43.73327419631531,"longitude":170.09525254384621},"category":{"name":"Wifi"}},{"id":141397,"name":"White Horse Hill Campsite","date_verified":"2020-12-29T00:00:00.000Z","description":"DOC campground in Aoraki Mt Cook National Park. Convenient location for starting several trails including Hooker Valley and Kea Point. Nice views of the surrounding mountains. Lots of area for vehicles and tents but it does fill up so be in early. Flushing toilets and a sheltered cooking area. Clean potable drinking water. Good phone reception. 25min walk to Mt Cook village where the visitor center is located. \r\n\r\nAs of 2020 $15pp/pn ","location":{"latitude":-43.718451513018195,"longitude":170.0927647949849},"category":{"name":"Established Campground"}},{"id":141434,"name":"Charging Station","date_verified":"2021-01-01T00:00:00.000Z","description":"There is a coin operated charging station next in the lounge area of The Old Mountaineers Cafe. $1 per hour","location":{"latitude":-43.73257,"longitude":170.09583},"category":{"name":"Eco-Friendly"}},{"id":141435,"name":"North Street Laundromat ","date_verified":"2021-01-01T23:46:04.899Z","description":"Excellent laundromat, clean and modern facilities. You can pay by cash or card (there is a kiosk that dispenses tokens for the machines).. \r\n\r\n$5 per wash, $2.50 per 15 minutes of drying in regular sized machines. Also has large machines for big loads. \r\n\r\nWash takes 15-20 mins depending on which cycle you choose. \r\n\r\nThere are also a couple of power outlets you could use to charge devices. ","location":{"latitude":-44.40052511174641,"longitude":171.25414880939874},"category":{"name":"Laundromat"}},{"id":141489,"name":"Lakeside Domain","date_verified":"2021-01-02T00:00:00.000Z","description":"Free camping in a large recreation area alongside Lake Ellesmere. Tons of space for everything from tents to buses. Nice clean flushing toilets with running water taps. There is one cold outdoor shower. Max 28 day stay. ","location":{"latitude":-43.79724416885878,"longitude":172.37121141531725},"category":{"name":"Informal Campsite"}},{"id":141490,"name":"Coes Ford Reserve","date_verified":"2021-01-03T00:00:00.000Z","description":"Very large freedom camping areas provided by Selwyn District Council next to river. Max 28-day stay","location":{"latitude":-43.695753322058195,"longitude":172.41306773339346},"category":{"name":"Informal Campsite"}},{"id":141538,"name":"Waihora Domain","date_verified":"2021-01-04T00:00:00.000Z","description":"Big spacious camping area at a public domain, a little way out of Christchurch. Super quiet with very few other campers so plenty of space. $10 per vehicle per night (honesty box). Has a few picnic tables, a playground and a BBQ. Next to a DOC nursery. Clean flushing toilets and drinking water available. Pets OK. Good mobile reception. ","location":{"latitude":-43.72822120789785,"longitude":172.58463235588053},