[{"id":19718,"name":"Banco Metropolitano ATM","date_verified":"2016-07-04T00:00:00.000Z","description":"ATM in Havana centro. It ONLY accepts VISA. NO Mastercard!","location":{"latitude":23.13267,"longitude":-82.3628},"category":{"name":"Financial"}},{"id":19719,"name":"Panamericana Mercado","date_verified":"2016-07-05T11:03:20.000Z","description":"5 liters jar for 1.90 CUC (or 1.90 USD). By far the cheapest bottled water you can find in Havana!","location":{"latitude":23.139510420172606,"longitude":-82.37311880111915},"category":{"name":"Water"}},{"id":19720,"name":"Correos De Cuba/ Post Office \u0026 CADECA (foreign Exchange)","date_verified":"2016-07-05T00:00:00.000Z","description":"Post office in Havana Vieja (Old Havana). (You dont need stamp for postcards. Its included in the price. We paid 1 CUC (or 1 USD) for one postcard including the stamp.) Also, there is a foreign exchange bureau just across (CADECA/ Casa De Cambio). Be aware when you exchange US Dollars. They deduct a 10% plus the exchange rate (check the picture). Prefer EURO, Canadian dollars or Mexican Pesos.","location":{"latitude":23.1381,"longitude":-82.34883},"category":{"name":"Financial"}},{"id":19721,"name":"FREE WIFI","date_verified":"2016-07-29T02:08:41.318Z","description":"FREE WIFI in Cuba!!! Deadly slow! Forget about social media or streaming! You just need patience! Ask for the password from the locals. We never managed to send/ reply to our emails. No skype also. We just managed to connect ;-) ","location":{"latitude":23.09198,"longitude":-82.45031},"category":{"name":"Wifi"}},{"id":19722,"name":"La Juliana","date_verified":"2022-05-28T00:00:00.000Z","description":"Pizza, pasta, sandwich and COCA COLA in Cuba!! One sandwich \u0026 one pizza 3,5 euro (90 cup). Its an Oasis of cheap \u0026 quality food in Havana. Forget about the 10 pesos food and come here for breakfast/ lunch/ dinner! Its worthwhile to visit this place and experience the slow (or fast? You decide) transformation of communist \u0026 authentic Cuba to a capitalist modern economy similar to its neighbors (US \u0026 Mexico). All prices are in Pesos Cubanos/ Moneda Nacional. The exchange rate is 1 CUC (tourist currency) for 24 CUP (Moneda Nacional). Off course they accept CUC. ","location":{"latitude":23.13533,"longitude":-82.36442},"category":{"name":"Restaurant"}},{"id":19723,"name":"Wifi Hotspot Havana Centro","date_verified":"2016-07-07T00:00:00.000Z","description":"Buy your ETESCA card from someone around and surf on the web in Cuba!! You pay 3 CUC (or 3 USD) for 1 hour. Normally, ETESCA sells for 2 CUC if you manage to buy from an official store. Dont expect great speed. Forget about FB, streaming etc. Skype works ok.","location":{"latitude":23.13772,"longitude":-82.3816},"category":{"name":"Financial"}},{"id":19724,"name":"Wifi Hotspot Viñales","date_verified":"2016-07-08T00:00:00.000Z","description":"Buy your ETECSA card and surf here. Its a nice busy kiosk with picnic tables. There is also a nice store/bar to buy drinks, alcohol or snacks.","location":{"latitude":22.6146,"longitude":-83.70947},"category":{"name":"Wifi"}},{"id":19725,"name":"Da'Tuty Bar \u0026 Restaurant","date_verified":"2019-08-09T00:00:00.000Z","description":"Nice restaurant in Viñales with reasonable prices. We ordered arroz mixto, artoz a la cubana \u0026 ropa vieja. All were nicely cooked. Good service also. Good prices compared to most of the touristic restaurants in Viñales.","location":{"latitude":22.61752082037052,"longitude":-83.70739406913864},"category":{"name":"Restaurant"}},{"id":19726,"name":"Valley De Viñales Viewpoint \u0026 Tourist Info Centre","date_verified":"2016-07-10T13:28:48.000Z","description":"Stunning views of the valley just before enter to the little town of Viñales. The building hosts also the tourist centre of the Valley de Viñales National Park from where you can get useful info about the area \u0026 the National Park, read about the history and check some trails. ","location":{"latitude":22.5966523541348,"longitude":-83.71974916205156},"category":{"name":"Tourist Attraction"}},{"id":19727,"name":"Los Jazmines Hotel Mirador","date_verified":"2016-07-10T16:01:55.000Z","description":"Excellent place to catch stunning views of the Viñales Valley. You can have lunch/ beers at the bar of the hotel also. 3 CUC if you want to swim in the pool. In a busy day (especially during weekends) dont bother. Just go in \u0026 jump in the pool! Nobody will notice. Its a public hotel so dont expect the service to be fast or good! Everything is slow. There is also WIFI (they sell ETECSA cards). If you want to stay, get prepared to splash the cash!!!! ","location":{"latitude":22.59650240188706,"longitude":-83.724142704237},"category":{"name":"Tourist Attraction"}},{"id":19728,"name":"Horse-back Riding In Viñales Valley","date_verified":"2016-07-29T02:08:42.326Z","description":"Jose is doing horse back riding in the Viñales Valley. You will visit a tobacco farm, a coffee plantation/farm and a cave where you can swim (its 2 CUC extra for getting into the cave). The cost is 10 CUC per person. The tour lasts 4-6 hours. Jose is a great guide, he is very experienced with horses \u0026 we had a great time. The activity is very good value for your money \u0026 the landscape is stunning. You can also buy cigars from the tobacco farm for 3 CUC per piece. You will also have the chance to try the cigar before shopping. The cigars are super nice. Jose rents casas \u0026 he also rents bicycles. The location of the place is his house. Its a two floors white-blue building. Just ask for Jose (or Pupito). Jose's house is in the basement (first on your right).","location":{"latitude":22.596487063004258,"longitude":-83.72418360792447},"category":{"name":"Tourist Attraction"}},{"id":19730,"name":"Los Cocos Beach - Playa Giron","date_verified":"2016-07-29T02:08:42.549Z","description":"If -for a reason- you end up to Playa Giron, since there is anything else to do, you can pay a visit to Los Cocos beach. Nice sandy beach, a bit rocky as you walk in with coconut trees in line. There are also some tiendas who sell stuff (souvenirs, summer hats, drinks etc). If you think its a typical Caribbean exotic beach, you are absolutely wrong!","location":{"latitude":22.06259,"longitude":-81.02775},"category":{"name":"Tourist Attraction"}},{"id":19731,"name":"CADECA/ Bus Station/ Grocery Store","date_verified":"2016-07-12T00:00:00.000Z","description":"A little complex that hosts most of the basics for travelers in the little town of Playa Giron. An exchange bureau (CADECA), a small grocery store (alcohol, cigarettes, some food etc) and the central Viazul bus station. Remember: book in advance for any destination (Cienfuegos, Trinidad, Varadero, Havana) as it gets too crowded in the morning. ","location":{"latitude":22.06739,"longitude":-81.03314},"category":{"name":"Shopping"}},{"id":19734,"name":"CADECA Cienfuegos","date_verified":"2016-07-29T02:08:42.936Z","description":"CADECA (government run exchange bureau) in Cienfuegos city centre. Expect long queues (as usual).","location":{"latitude":22.14608,"longitude":-80.44964},"category":{"name":"Financial"}},{"id":19735,"name":"Restaurant Inside Mercado Artesanias","date_verified":"2017-03-08T00:00:00.000Z","description":"A little hidden gem inside the Mercado Artesanias in Calle 54 (the main paseo in Cienfuegos). Just across Restaurant \"La Verja\", go inside the mercado and look for the little restaurant. It does not look great at the first sight but food is awesome and dirty cheap. Really big portions, good service and tasty cuban food. We had fish, ropa vieja (a cuban classic) and  mixta (including 4 soft drinks, we paid 205 cup for 4 people). All were delicious. Dont miss it when you are in Cienfuegos! Highly recommended.","location":{"latitude":22.145280555555555,"longitude":-80.44983888888889},"category":{"name":"Restaurant"}},{"id":19737,"name":"Playa Ancon","date_verified":"2016-07-29T02:08:43.218Z","description":"The place to be in Trinidad. Take the bus from the town (4 cuc return ticket pp) and spend your day in Carribean! Lots of places for drinks and food around! ","location":{"latitude":21.73773564400313,"longitude":-80.00627528883517},"category":{"name":"Tourist Attraction"}},{"id":19738,"name":"Wifi Hotspot Trinidad","date_verified":"2020-10-11T00:00:00.000Z","description":"Buy your ETECSA card and surf! Excellent place for socializing as well. Free live music shows at night. ","location":{"latitude":21.80507,"longitude":-79.9838},"category":{"name":"Wifi"}},{"id":19739,"name":"Casa Cary Y Lazaro","date_verified":"2016-07-29T02:08:43.375Z","description":"Casa particulare in the city centre. Has everything (AC, hot water, kitchen, privacy) and its location is super. They usually charge 25 CUC. Bargain hard. We paid 20 CUC per night. If they ask if its your first time, say no and pretend that you know the price range. ","location":{"latitude":23.13643350733736,"longitude":-82.36506865367514},"category":{"name":"Hostel"}},{"id":19741,"name":"La Borla TRD CARIBE","date_verified":"2017-03-12T13:38:30.567Z","description":"Cheap water in Havana Centro. 0,45 CUC for 500ml, 0,70 CUC for 1,5lt \u0026 1,90 CUC for 5lt.","location":{"latitude":23.133162469624665,"longitude":-82.36253505580346},"category":{"name":"Water"}},{"id":19742,"name":"Soda Obispo Helados (Ice Creams)","date_verified":"2019-10-08T20:51:03.207Z","description":"Best \u0026 cheapest ice cream in Havana. Dont miss the coconut (coco glasé). You pay in CUP.","location":{"latitude":23.137758560500234,"longitude":-82.35582299538176},"category":{"name":"Restaurant"}},{"id":19777,"name":"Hostal Elena","date_verified":"2016-07-30T16:18:18.066Z","description":"Excellent Cuban hospitality by a lovely family. Great colonial building with all the basic amenities you can find in Cuban houses (A/C, hot water, power). They also provided us with filtered water to drink for free and they let us make use of their kitchen. Only two blocks from the main avenue of Cienfuegos and less than 10 min walk from the main plaza. We paid 35 CUC for a room (we were 4 people). If you bargain, she will let you stay for 17-18 CUC for a couple. Recommended!","location":{"latitude":22.145032980499924,"longitude":-80.44689391747158},"category":{"name":"Hostel"}},{"id":21166,"name":"Immigration","date_verified":"2016-08-31T13:04:25.384Z","description":"Get your Touristcard extension here\r\n\r\nBring:\r\n25 CUC in sellos (you get them at a bank)\r\nold tarjeta turistica (must be expired!)\r\nConfirmation of your next night at a casa or hotel\r\nPassport\r\n","location":{"latitude":23.10144,"longitude":-82.4438},"category":{"name":"Customs and Immigration"}},{"id":25497,"name":"Casa Azul","date_verified":"2016-11-27T00:00:00.000Z","description":"This Casa is about10 minutes walking from center. There is terrace, relaxing at terrace was amazing. Hot shower, air conditioner, fan, refrigerator, TV. I stay here 3 nights, room is 12 CUC, breakfast is 3 CUC, dinner is 4 CUC. Food are very delicious. If you stay only 1 night, price is more high maybe. If you are 2 people, price is more low maybe. Owner Maira is very nice lady. She speaks only Spanish but she is used to meet foreigners who don't understand Spanish.","location":{"latitude":20.01766339627158,"longitude":-75.82700800050972},"category":{"name":"Hostel"}},{"id":25498,"name":"Casa de Emma","date_verified":"2016-12-07T12:34:06.093Z","description":"Home stay style accommodation. There are 2 rooms, each room have 2 beds. Room are simple but very clean. For 1 parson is 10 CUC. Price is include breakfast. Dinner is 5 CUC. Emma is very kind and wonderful cook.\nBaracoa is not too much touristic, sea and mountains are beautiful. Baracoa is NO.1 town of Cuba for me. ","location":{"latitude":20.346842794024194,"longitude":-74.49585727148929},"category":{"name":"Hostel"}},{"id":25661,"name":"Villa Colón, Casa Particular","date_verified":"2016-11-17T00:00:00.000Z","description":"Nice casa particular with 3 rooms, for max. 6 people, newly renovated (last steps in progress, A/C planned). Very friendly, English speaking hosts. We were 2 persons and paid 35 CUC pn for the whole house. \nBreakfast and great local dinner at their friend's house next to Villa Colón. Be open! Its the simplest hut, but Roberto is the most warm-hearted cook. His tortilla is unique and dinner with fish, octopus really great. 400 m from the Caribbean beach. White sand, blue water, almost no people. ","location":{"latitude":21.0832871217477,"longitude":-76.00242814987526},"category":{"name":"Hotel"}},{"id":26123,"name":"Salto del Guiabol (highest waterfall on Cuba)","date_verified":"2016-12-20T00:00:00.000Z","description":"5cuc entrance fee, can see one slightly smaller waterfall from restaurant without paying entrance. i did not enter but heard it's nice, you have to hike to the bottom to see it, swimming in the pools possible (get out of your riding gear).\r\n\r\nthe road from Mella to here is loose gravel with big stones, not the best, down to Mayari is good dirt.\r\n\r\n\r\n","location":{"latitude":20.5693,"longitude":-75.73516},"category":{"name":"Tourist Attraction"}},{"id":26283,"name":"beachcamp next to bucanero bar","date_verified":"2016-12-24T00:00:00.000Z","description":"the bar closes around 6pm and there is a guard staying all night who also looks for your bike if you decide to go for a walk.\r\neveryone is super nice here and they say it would be no problem to camp here.\r\nhad a nice quiet night, even in daytime there is not much going on, it's beautiful, highly recommend.\r\n\r\nthere is a 24h restaurant with excellent food for ~5cuc, 5min walk direction la boca, if you walk along the beach you can't miss it.\r\n","location":{"latitude":21.60048,"longitude":-77.09946},"category":{"name":"Wild Camping"}},{"id":26377,"name":"Abandoned","date_verified":"2016-12-27T17:26:40.455Z","description":"Abandoned place. Camping free directly at the beach. No infrastructure. Ocean water is clean. Looks like a place where couples go to have some time together. ","location":{"latitude":20.0556876,"longitude":-74.61132817},"category":{"name":"Wild Camping"}},{"id":26527,"name":"playa ancon beach camp","date_verified":"2016-12-27T00:00:00.000Z","description":"best to make friends with the security as early as possible, went for a swim and for a \"small\" tip (1cuc) he allowed me to use the outdoor shower of the adjacent resort.\r\ni also paid 1cuc for parking till people had left...\r\n\r\n","location":{"latitude":21.73683,"longitude":-80.00399},"category":{"name":"Wild Camping"}},{"id":26528,"name":"Playa Giron Camp","date_verified":"2016-12-30T20:50:47.493Z","description":"another nice beach camp with cocktail/beer supply till ~6pm. beachguards and bar guys are really cool, deliver drinks, get food (from somewhere else), cut down coconuts from the palm trees as needed and are generally very friendly. \r\nthere is lots of grass around for camping. quiet night.","location":{"latitude":22.06479,"longitude":-81.0335},"category":{"name":"Wild Camping"}},{"id":26530,"name":"Cueva de los peces","date_verified":"2016-12-30T00:00:00.000Z","description":"i'm not sure what the guidebook says, but there is some really nice snorkelling around here, best to bring your own gear and be here before 9 (it gets really crowded around 10am).\r\nsnorkel/diving rental opens at 9-9:30.\r\n\r\nnice shipwreck if you swim out straight just before it gets really deep to your right.\r\n\r\nif you worry about getting into your riding gear with sticky saltwater, there is a beautiful natural freshwater-pool next to the restaurant (which i think serves things like crocodile).\r\n\r\nreally good place, many beautiful places for camping along this road.","location":{"latitude":22.16668,"longitude":-81.13743},"category":{"name":"Tourist Attraction"}},{"id":26944,"name":"Marina fuel","date_verified":"2017-01-07T15:05:22.362Z","description":"this is the very end of the road, there is a small marina and a locked pump for boats, they have especial and diesel.\r\ni had to personally pick up the fuel guy from las tumbas to get fuel here. easier you fill up in Sandino. there is also a bar which serves drinks (pricey).","location":{"latitude":21.9013,"longitude":-84.90726},"category":{"name":"Fuel Station"}},{"id":26945,"name":"Guanahacabibes National Park","date_verified":"2017-03-13T15:21:43.278Z","description":"entrance gate to national park.\r\nvery nice ride to the western end of Cuba.\r\nbetter ride slow, many animals crossing this road, pig families, iguanas, birds, huge crabs, horses and cows.\r\nsome great spots to camp near the beach, not 100% sure it's permitted (the manager of las tumbas hotel said it's not) but rangers found me around 7pm standing next to my tent, waved hello and left. some spots have wooden shelters (seem to be made for camping)\r\n\r\nthere is a shipwreck close to the road too, you can't miss it...\r\n\r\ni can't say if there is an entrance fee as i took a short dirtroad into the park circumventing the gate, when i left through the gate (ready to pay) they asked for my permit and just let me go without...","location":{"latitude":21.9227,"longitude":-84.47986},"category":{"name":"Tourist Attraction"}},{"id":26946,"name":"wooden shelter","date_verified":"2017-01-07T15:05:22.691Z","description":"very nice place to camp, hard ground to park the bike and sheltered spot to put up a tent. many seating/cooking options. pigs might visit. there is an old man living nearby (the house to the west) who might come over as well. he didn't talk much, maybe he is the caretaker of this spot and expected some money, but he didn't say. i left a tip.\r\n","location":{"latitude":21.82325,"longitude":-84.87132},"category":{"name":"Wild Camping"}},{"id":26948,"name":"María La Gorda","date_verified":"2017-01-07T15:05:23.372Z","description":"hotel and diving center.\r\n5cuc to spend the day in the compound\r\n7cuc for snorkeling gear\r\n12cuc for snorkeling boat trip\r\n63s/85d for a room\r\nhas wifi, food, bar\r\ni just rented gear and snorkelled from the beach, enjoyable but nothing spectacular, i think the diving trips are good though.\r\n","location":{"latitude":21.82002,"longitude":-84.4939},"category":{"name":"Hotel"}},{"id":27234,"name":"hostal el jardin","date_verified":"2017-01-11T00:00:00.000Z","description":"20cuc in high season, garage with space for two bikes, nice family and big room with attached roof terrace. 5 small lazy dogs.\r\n","location":{"latitude":22.40178,"longitude":-79.963},"category":{"name":"Hostel"}},{"id":27607,"name":"Place at the ocean","date_verified":"2017-01-17T16:01:02.050Z","description":"Incredible nice place at the ocean. Big rocks and lot,s of fisherman. The street from the east is pure adventure for motorbike riders. Good sleep. Safe. Also worth a short visit. Good swimmers can have a lot of fun...","location":{"latitude":22.04106431,"longitude":-80.8961176},"category":{"name":"Wild Camping"}},{"id":27645,"name":"bike importation/exportation","date_verified":"2017-01-13T00:00:00.000Z","description":"blue building at the window.\r\nfor exportation bring a 5cuc stamp. they will take engine and chassis number (again). \r\nimportation expect one full day, exportation a few hours.\r\n","location":{"latitude":22.14422,"longitude":-80.43211},"category":{"name":"Customs and Immigration"}},{"id":30217,"name":"Hostal Sra. Maylan","date_verified":"2019-04-29T00:00:00.000Z","description":"Very nice hostel with huge garage. place for at least 6 motorbikes. Right now they can host 3 people but they a building more rooms. The lady of the house is super friendly and you shouldn't miss her food. You can wash your motorbike in the garage if you like. Perfect spot if you are leaving Cuba from Cienfuegos since it's just 60km away... Highly recommended.","location":{"latitude":21.80131248,"longitude":-79.98947391},"category":{"name":"Hostel"}},{"id":31016,"name":"Maritza Rent Room","date_verified":"2017-03-12T13:38:29.021Z","description":"This a guest houst located at about 2 km from La Habana Vieja. You feel in the heart of The true city, you live in a family house very friendly and helpful.   When we arrived the house was full but Maritza has many links in neiborough and she found another family (Elvira) that could rent a room for us, a few meters further. \nWe paid 30€ for a double with bathroom and shared saloon and kitchen. Everything very clean. \nPossibilty to have breakfast at Maritza's for 4€/pers. \nA good place to stay in La Habana. \n","location":{"latitude":23.136714929736343,"longitude":-82.36195846468429},"category":{"name":"Hostel"}},{"id":31017,"name":"Jazz Cafe Trinidad","date_verified":"2017-03-12T13:38:31.774Z","description":"buffet and a main course for cheap in this restaurant located in the heart of Centro Historico. \r\nPrice : 7.50 CUC if meat as main course\r\nOr 11 CUC if you choose as main course the grilled lobster tail (Big and delicious). \r\nIn the free buffet you can find : rice, beans, raw vegetables, chips, squash and fruits (pineapple, papaya). ","location":{"latitude":21.80383,"longitude":-79.985},"category":{"name":"Restaurant"}},{"id":31018,"name":"Taxi driver with old Pontiac in Cienfuegos","date_verified":"2017-03-12T13:38:34.969Z","description":"His name is David Pérez he drives a magnificent ancient Pontiac from 1959 and practices good prices to ride from a town to another. \nWe paid 25 CUC (for 2 of us) from Trinidad to Cienfuegos. \nHe can drive you everywhere in Cuba. \nFrom Cienfuegos to Viñales he charged 100 CUC (420 km).\nPhone cell : 0143579038","location":{"latitude":22.14437223507291,"longitude":-80.44372631244403},"category":{"name":"Tourist Attraction"}},{"id":39833,"name":"Terminal Connection Bus - Almost Free Airport Travel","date_verified":"2018-12-03T22:16:57.561Z","description":"To get to Havana City or back to the Airport for 2pesos (2cup), yes literally about 6cents.\n\n1. From Airport take terminal bus to this location cost 1peso.\n\n2. Use Maps.me and walk to the terminal 2 bus station (image attached)\n\n3. Catch the P12 bus it is squishy and takes about 1hour but this bus with cost another 1peso (3cents)\n\n4. Get off at Parque El Curita (corner of Dragones and Águila) you are now right in Old Havana about 200metres from the National Capital\n\nFollow the directions in Reverse to get back to the Aiport, somone has already pinned the park / location of the P12 bus in the city.\n\nThis saves you 35USD each way. \n\nHeads up 1cuc = 24cup = 90cents USD\n\nEnjoy","location":{"latitude":23.0029784,"longitude":-82.393033},"category":{"name":"Tourist Attraction"}},{"id":44016,"name":"casa galicia (maximiliano ramos 112 street)","date_verified":"2017-09-19T00:00:00.000Z","description":"colonial house. very clean, friendly. you can park the car. we paid 15cuc and we park the car inside. very close of centrum. you can breakfast for a few money. with a patio inside they do some times mojitos in the patio.","location":{"latitude":21.38178827,"longitude":-77.92303396},"category":{"name":"Hostel"}},{"id":44017,"name":"hostal Elida","date_verified":"2017-10-02T21:33:07.316Z","description":"clean, nice and family very friendly. we paid 12cuc but it was low season and after the Irma hurricaine.","location":{"latitude":22.4074186,"longitude":-79.9617612},"category":{"name":"Hostel"}},{"id":54926,"name":"La Lonja","date_verified":"2018-03-19T00:00:00.000Z","description":"Cool simple bar with outdoor seatings. Very very cheap! The prices are in CUP but in can pay in CUC (1 CUP = 1 CUC). Nice and polite staff (how difficult is to find this in Cuba). Beer costs 35 CUP (1,40 CUP), Cheese Sandwich 25 CUP (1 CUC), Pork Sandwich 25 CUP (1 CUC).\nMaind dishes around 80 CUP (3,20 CUC).\nNice place to stop for a beer!","location":{"latitude":22.14295693007359,"longitude":-80.45243201861929},"category":{"name":"Restaurant"}},{"id":57959,"name":"Free wifi access point","date_verified":"2018-04-19T00:00:00.000Z","description":"weird...but free wifi in this little square. there s also a small restaurant with a horseshoe table setting. paid 2 cuc with fresh tamarindo juice","location":{"latitude":23.14548,"longitude":-82.38934},"category":{"name":"Wifi"}},{"id":57961,"name":"Cristina casa particular","date_verified":"2018-04-24T00:00:00.000Z","description":"I arrived late in Havana and had to leave the next morning. useless to go back to Havana city and then pay 25cuc for a taxi in the morning, so I stayed in this nice house. 20 per night (but maybe you can work your way towards 15) with air-conditioning and private bathroom. single room. Cristina is very helpful and friendly.\nnearby there are few food stalls where you can eat with 1.5cuc a huge meal with fresh juice.\nwalking distance to the airport. follow maps.me and you ll get there in 45 min.\nthere are also fancier options in the area too for 30-40 a night. ","location":{"latitude":23.023600200591506,"longitude":-82.40326966079843},"category":{"name":"Hostel"}},{"id":60519,"name":"Leyanis y Jesus A.","date_verified":"2017-06-08T00:00:00.000Z","description":"Nice spot with view in the valley. Price 15 CUC per night/room","location":{"latitude":22.618254634003687,"longitude":-83.71236928848667},"category":{"name":"Hotel"}},{"id":61659,"name":"Shipwreck","date_verified":"2018-06-09T00:00:00.000Z","description":"Massive Shipwreck in the Sea, amazing! Would be cool to explore i guess. Entry to national park free and without problem if you speak a bit spanish and tell you want to come to take pictures. Hard to miss!","location":{"latitude":21.81295817,"longitude":-84.79877315},"category":{"name":"Tourist Attraction"}},{"id":68625,"name":"Family house","date_verified":"2018-08-05T00:00:00.000Z","description":"It´s a house with 2 floors. In the first floor there is a kitchen, bathroom and a room with a really big mattress (2m), and A/C and fridge. In the 2 floor there is a room and a bathroom with A/C and fridge.\r\n You can rent just one floor. Belongs to a really honest and nice family, nice conversations with them. 15 minutes walk to the beach. \r\nNear the house you have a lot of restaurants ( la cocinita de yumi and super Mochis are delicious). \r\nAsk for Arley, the color of the house is dark red and creamy. ","location":{"latitude":23.12212682,"longitude":-81.29373481},"category":{"name":"Hotel"}},{"id":68627,"name":"Casa señora Miriam","date_verified":"2018-08-10T00:00:00.000Z","description":"This is Miriam´s house. Has 3 rooms with toilet and A/C. Is about 2,5 km from the center. Miriam is a really good cooker.  ","location":{"latitude":22.126783,"longitude":-80.449942},"category":{"name":"Hostel"}},{"id":68628,"name":"Niuka's house","date_verified":"2018-08-10T00:00:00.000Z","description":"This is Niuka's house. The house has a room with two big beds. The family is really honest and friendly. We did a laundry there. We felt like at home with this family.","location":{"latitude":22.12683292,"longitude":-80.45038544},"category":{"name":"Hostel"}},{"id":68629,"name":"Casa Conte","date_verified":"2018-08-12T00:00:00.000Z","description":"This is the house from Eric and Yemney, they are a really nice couple, nice conversations with them. The house has 2 rooms with a double bed, bathroom and A/C. \r\nAlso they have a small house that you can rent with kitchen, a bedroom and a bathroom.\r\n There is a nice terrace. They make good breakfast for 5 CUC.","location":{"latitude":21.80188754,"longitude":-79.98883653},"category":{"name":"Hostel"}},{"id":69540,"name":"Milagros y Yamile","date_verified":"2018-08-25T00:00:00.000Z","description":"Room with 2 double beds with toilet inside and fridge. Milagros and Yumile are a very nice womans. I really recommend this people. Telephone number is +5353311915. Good breakfast. ","location":{"latitude":22.61692933,"longitude":-83.71165745},"category":{"name":"Hotel"}},{"id":80607,"name":"Camp at the beach ","date_verified":"2018-11-26T00:00:00.000Z","description":"A really nice wild camping site at the beach of the nice and small village, Guasasa. \r\nThe road from Playa Giron is really nice by bike. Many spot to stop for a bath or a night close to the amazing see.\r\nLuis from the «  casa particular » just in front the beach in Guasasa is such a nice guy and told us that’s super safe to camp here even his hostel was empty! \r\nYou can find some diner here too but no shop.","location":{"latitude":22.055858834667184,"longitude":-80.7877169363953},"category":{"name":"Wild Camping"}},{"id":81380,"name":"Cayo Jutias","date_verified":"2021-03-28T00:00:00.000Z","description":"beautiful beach with lots of space to camp and robinson feeling. on weekends busy but everyone is leaving before nightfall. nearby restaurants and bars for food and drinks. lots of moscitos during rainy season.","location":{"latitude":22.70514583,"longitude":-84.04687326},"category":{"name":"Wild Camping"}},{"id":81796,"name":"Villa Jardin Yusniel y Lida - Awesome view!","date_verified":"2019-04-25T00:00:00.000Z","description":"A wonderfully friendly young couple own this place. A basic room with two beds but nice bathroom and really good hot shower. The view from the small patio is great - hills, tobacco fields, drying barn and workers. The breakfast is also really nice. To top it off we paid just 15 CUC. Highly recommended.","location":{"latitude":22.61793824,"longitude":-83.71158401},"category":{"name":"Hotel"}},{"id":89854,"name":"Yane House","date_verified":"2019-04-17T00:00:00.000Z","description":"Private home run by Yane.\r\nvery friendly, speaks English as well. Room is clean and has A/C.\r\n","location":{"latitude":23.12253,"longitude":-81.29511},"category":{"name":"Hostel"}},{"id":91217,"name":"Hostal Weber","date_verified":"2019-04-30T00:00:00.000Z","description":"A nice new hostal with a garage at Salvador Cisneros #155.\r\nSimple, clean, friendly people. \r\nGood location in the center of town.","location":{"latitude":21.377730052918196,"longitude":-77.91858276352286},"category":{"name":"Hostel"}},{"id":91525,"name":"Casa Heydi en la Montaña","date_verified":"2019-05-01T00:00:00.000Z","description":"Heydi the owner runs a nice little casa with a couple of rooms. She speaks English too and can organise trips to the nearby park.\r\nBreakfast and dinner can be provided. a room cost me 15CUC.\r\nmotorcycles can be parked on the property, but if it's big and heavy it might be more of a challenge riding it up and down into the garden.","location":{"latitude":20.043261875398457,"longitude":-76.90660868771374},"category":{"name":"Hotel"}},{"id":91868,"name":"2 hermanos","date_verified":"2019-05-04T00:00:00.000Z","description":"Spotted a casa with private parking. \r\nHad some trouble finding one myself and my bike ended up in someone's living room, but thought I'd share this one.","location":{"latitude":20.348916691727936,"longitude":-74.49717789888382},"category":{"name":"Hotel"}},{"id":95041,"name":"Villa \"El Pescador\"","date_verified":"2018-01-17T00:00:00.000Z","description":"Nice hostal, friendly people ('Syviadis\" offered me her laundromat for washing clothes). Very clean bedrooms (available for 10 - 20 CUC) and delicious food (especially the fish plate).\r\nOnly 5 minutes walk to the Beach, where you can find some shade under Mangrove trees.\r\nNice to hang out for a while!\r\n\r\nContact:\r\nPhone: 55460925 (in Cuba, Puerto Esperanza)\r\nE-Mail: siviadys.cuella@nauta.cu\r\n","location":{"latitude":22.773999999999997,"longitude":-83.7278},"category":{"name":"Hostel"}},{"id":95043,"name":"Villa \"El Pescador\"","date_verified":"2018-01-19T00:00:00.000Z","description":"Nice hostel, approx. 200 m away from the beach, where you can relax in the shade of the mangroves and swim in the clean water (I have seen a really big sea star!). Very delicious food (especially the fish plate, because the owner is a fisherman!).\r\nThey even let me use their laundromat for free!\r\nPrices for rooms range from 10 to 20 CUC.\r\nReservation contact:\r\nSiviadys y Joel David Fernandez \r\nPhone: 55460925\r\nMail: Siviadys.cuella82@nauta.cu","location":{"latitude":22.773999999999997,"longitude":-83.72779722222222},"category":{"name":"Hostel"}},{"id":100567,"name":"Bar","date_verified":"2019-06-26T00:00:00.000Z","description":"The small bar in the middle of 2 restaurant is the best. \r\njust sándwich to eat but coconut, fruit, beer, cocktail at good price and the guy is very friendly","location":{"latitude":22.701833923496697,"longitude":-84.05055833805349},"category":{"name":"Restaurant"}},{"id":100568,"name":"casa anay y jesus","date_verified":"2019-07-02T00:00:00.000Z","description":"Best view in Viñales!\r\nThe house \"casa particular\" is in front of a field with spetacular panorama of mogotes and all the valley, sunrise and sunset are superb.\r\nPlace is clean, brand new bathroom, quiet, fan and a-c, good breakfast, añso offer dinner at \"viñales prices\" 4 to 10 cup but i found a local place for eat at 1.\r\nIn low season if you speak spanish is possibile to pay just 10cup but also 15 is a deal.","location":{"latitude":22.618793420059756,"longitude":-83.71264728515855},"category":{"name":"Hotel"}},{"id":100569,"name":"Beach camp","date_verified":"2019-07-07T00:00:00.000Z","description":"This is the first free place to camp after playa larga.\r\nDirt road and nice beach, some trash.\r\nIf you check the low tide times you can probably pitch your tent on the second beach in front of the lagunas.\r\nGood swim, because of the river water at the bottom is warm and cold at top.\r\nMet some nice guy fishing at sunset.","location":{"latitude":22.27998933095172,"longitude":-81.185594050048},"category":{"name":"Wild Camping"}},{"id":111920,"name":"WiFi 1CUC / 1h","date_verified":"2019-10-06T00:00:00.000Z","description":"Get WiFi here for 1 CUC / 1h.\r\nThe small tienda is located on the south side of parque trillo. You need your passport to buy the cards (max 3 allowed per person)","location":{"latitude":23.136173,"longitude":-82.375217},"category":{"name":"Wifi"}},{"id":121730,"name":"Casa Manolito y Nory","date_verified":"2020-01-01T00:00:00.000Z","description":"We normally don‘t add the casa‘s here in Cuba on iOverlander but we really really enjoyed this one so here it goes:\r\nYou get the whole upper floor to yourselfs which includes: 2 beds for 3 ppl, AC, double windows for air circulation (we didnt need ac in late december), good shower (our previous casa‘s had really low water pressure, this one was nice), a second room with rocking chairs and a fridge with minibar, two separate terrasses with chairs and table (one on the roof). The location is great, you are in the middle of the center. \r\nWe paid 25cuc but it was around new years eve and everything was booked so maybe you can haggle the price. For 5cuc more per person we got a huge breakfast which no restaurant near us could beat for the price.\r\nAlso, Manolito the owner is a hilarious and honest guy, even if you dont speak much spanish you will get a kick out of it.\r\nTotally recommended.\r\nAdress is Gustavo Izquierdo 41\r\nMail from the owner: manuel.lagunilla@nauta.cu\r\nPhone: 41994299","location":{"latitude":21.803284767104127,"longitude":-79.98496622785925},"category":{"name":"Hotel"}},{"id":122481,"name":"hostal orishas","date_verified":"2020-01-15T00:00:00.000Z","description":"nice hostal near the center.\r\n20 CUC for room with 3 beds. \r\n5 CUC breakfast. \r\nexcellent secure parking.\r\ncalle 51 c/e 54y54","location":{"latitude":22.14486,"longitude":-80.44157},"category":{"name":"Hostel"}},{"id":122483,"name":"wifi","date_verified":"2020-01-16T00:00:00.000Z","description":"smal placa with wifi. not free! \r\nlook for the ETECSA office and buy your card.\r\nwifi is fast!","location":{"latitude":21.800790046306556,"longitude":-79.98459641139311},"category":{"name":"Wifi"}},{"id":122485,"name":"lake side","date_verified":"2020-01-16T00:00:00.000Z","description":"campside next to the lake.\r\ngo past the old hotel and open and close the fence.\r\nmay you have to talk to the guard. ","location":{"latitude":21.88708889864733,"longitude":-79.3868667044914},"category":{"name":"Wild Camping"}},{"id":123008,"name":"motorcycle parking","date_verified":"2020-01-22T00:00:00.000Z","description":"official motorcycle parking.\r\n5 pesos national per night.","location":{"latitude":22.40681115573061,"longitude":-79.96415922042814},"category":{"name":"Short-term Parking"}},{"id":123348,"name":"Nicho Waterfall ","date_verified":"2020-01-15T00:00:00.000Z","description":"Beautiful waterfalls where you can take a bath. Next to El Nicho, down to the left if you are coming from Cienfuegos. No entry fee and we had the spot for ourselves. You could also camp here. Enjoy :) ","location":{"latitude":22.031537771371966,"longitude":-80.13071349174051},"category":{"name":"Tourist Attraction"}},{"id":123349,"name":"Las Clavellinas","date_verified":"2020-01-17T00:00:00.000Z","description":"They call it \"camping\" but you sleep in small huts. Expect nothing special, it's very basic but cheap. We paid 120 COP. and had space for 3 persons. On a friday night there was loud boom boom music 'till 2 am. ","location":{"latitude":21.413998761757554,"longitude":-77.78090686315299},"category":{"name":"Hostel"}},{"id":123350,"name":"Embalse El Yeso","date_verified":"2020-01-21T00:00:00.000Z","description":"We wanted to camp at the official campesina but they refused to let us in. So we set up our tent right next to it. Beautiful place at the laguna and quiet at night. Some local horse riders came in the morning but they didn't bother. ","location":{"latitude":21.120216015927117,"longitude":-76.75271440745927},"category":{"name":"Wild Camping"}},{"id":123351,"name":"Casa Andrés y Mary ","date_verified":"2020-01-26T00:00:00.000Z","description":"Very good option for Viñales. Andrés and Mary are super welcoming hosts. The Casa has big and clean rooms with double and single beds and private bathrooms. Very good and huge meals for breakfast and dinner (not included but highly recommended) . Big Parking lot for cars and motorcycles.\r\n5 cuc pppn. ","location":{"latitude":22.61110342431086,"longitude":-83.71669804754974},"category":{"name":"Hostel"}},{"id":123504,"name":"Hostal D'cordero","date_verified":"2020-01-23T00:00:00.000Z","description":"Very lovely hotel. Nice ambiente. Friendly people. 25 coc for room with 3 beds.\r\nParking near by.","location":{"latitude":22.40730418078579,"longitude":-79.96292733157064},"category":{"name":"Hostel"}},{"id":123505,"name":"Batabano","date_verified":"2020-01-24T00:00:00.000Z","description":"Good spot for camping.\r\nTalk to the guard and they let you camp.\r\nHad a very quiet night.","location":{"latitude":22.68562078856339,"longitude":-82.28189300005607},"category":{"name":"Wild Camping"}},{"id":124655,"name":"Corrazon del Mundo ","date_verified":"2020-01-28T00:00:00.000Z","description":"Probably the cheapest option to stay in Havanna. Very basic but clean rooms and a very nice rooftop terrace. Small kitchen for guests. 15 Cuc for 2 persons. 25 cuc for 5 persons. Parking next door 5 cuc per night, probably negotiable. ","location":{"latitude":23.135541432638064,"longitude":-82.37140029896987},"category":{"name":"Hostel"}},{"id":124656,"name":"Gas station scammers","date_verified":"2020-02-05T00:00:00.000Z","description":"Be careful at this gas station. They told our friends, the pump is broken and the \"especial\"-gasoline is inside the 84 octane pump (probably it wasn't). Then the guy from the station filled up and told them it's 40 cuc (should have been around 20 cuc for especial) \r\nPay in advance and fill by yourself, like it is normal in Cuba and let them give you a receipt. ","location":{"latitude":22.07374,"longitude":-80.39255},"category":{"name":"Warning"}},{"id":125094,"name":"playa amarilla","date_verified":"2020-01-28T00:00:00.000Z","description":"good spot for camping. may you have to ask the locals. not many people around.","location":{"latitude":23.149064764678855,"longitude":-81.80939351432013},"category":{"name":"Wild Camping"}},{"id":125095,"name":"In the mangroves ","date_verified":"2020-01-31T00:00:00.000Z","description":"probably the only place to camp on varadero right next to the sea.\r\na lot of trash and noise of the road and the city.  There was no on around!","location":{"latitude":23.139306841411905,"longitude":-81.26988172946147},"category":{"name":"Wild Camping"}},{"id":125096,"name":"fast food","date_verified":"2020-02-01T00:00:00.000Z","description":"it says abierto 24 hours.\r\nlocal prices.\r\ntaste was ok.","location":{"latitude":23.152428314614582,"longitude":-81.25344660911166},"category":{"name":"Restaurant"}},{"id":125097,"name":"fast food","date_verified":"2020-02-03T00:00:00.000Z","description":"not the one in the front! the one in the back has local prices. ","location":{"latitude":22.0704624715698,"longitude":-81.03025375444228},"category":{"name":"Restaurant"}},{"id":125098,"name":"cenote","date_verified":"2020-02-04T00:00:00.000Z","description":"cristal clear water. \r\nbring your snorkeling mask.\r\nalso good for camping.","location":{"latitude":22.05471153893477,"longitude":-80.994307717314},"category":{"name":"Tourist Attraction"}},{"id":125099,"name":"enigma de las rocas","date_verified":"2020-02-05T00:00:00.000Z","description":"here is the entrance for the enigma de la rocas trail.\r\nnice walk true through the forest.\r\nyou can spot some animals.","location":{"latitude":22.07592,"longitude":-81.05688},"category":{"name":"Tourist Attraction"}},{"id":140826,"name":"Coppelia ","date_verified":"2020-01-20T00:00:00.000Z","description":"The local ice cream chain. All locals come here, it's fun to watch them. If you want to blend in, you have to order at least three big cups each ;) ","location":{"latitude":20.0241343,"longitude":-75.81898739},"category":{"name":"Restaurant"}},{"id":140827,"name":"Casa del Cheff","date_verified":"2020-01-20T00:00:00.000Z","description":"Good local Restaurant with fish, meat and chicken dishes. \r\nDishes from 40 to 110 CUP\r\nBistec de cerdo 40 CUP\r\nLomo de cerdo 60 CUP\r\nCamarones 110 CUP","location":{"latitude":20.88491891,"longitude":-76.25967404},"category":{"name":"Restaurant"}},{"id":145127,"name":"Beach road","date_verified":"2021-03-29T00:00:00.000Z","description":"This road follows along the ocean. There are maybe 6 excellent camp spots right on the beach and are in the mangroves out of the sun. a little trash from locals but so remote, not that bad. I was camping from my motorcycle.","location":{"latitude":21.87439154,"longitude":-84.45516973},"category":{"name":"Wild Camping"}},{"id":145128,"name":"Beach East of Gitmo","date_verified":"2021-04-06T00:00:00.000Z","description":"Moderator Note: The User did not apparently stay the night. Please check the situation carefully before setting up for overnight. \r\n\r\nDid not camp here as too early in day. But perfect spot for tent camping with huge sandy beach. There looks to be a bar of a sort at the entrance to road but closed due to Covid. Take road all the way to the end for best access. I am on my motorcycle-  tent camping.","location":{"latitude":20.01423094,"longitude":-74.86318864},"category":{"name":"Wild Camping"}},{"id":145223,"name":"Cascorro Wifi","date_verified":"2021-03-29T00:00:00.000Z","description":"Wifi signal in the park with shady park benches. Decently fast. \r\n\r\nI'm not sure if there's anywhere nearby to buy an ETECSA card. ","location":{"latitude":21.19936991,"longitude":-77.45469486},"category":{"name":"Wifi"}},{"id":149897,"name":"Casa Particular Mileidy y Papo","date_verified":"2021-04-10T00:00:00.000Z","description":"Top notch Casa Particular. Superbly clean. Great views. Spacious, covered outdoor patio.\r\n\r\nTwo rooms are available. Each room will sleep four. I traveled solo. Cost for me was US$25 per night, plus US$10 for dinner and US$5 for breakfast. Excellent food.\r\n\r\nStreet parking for cars/vans. Room in the carport for a motorbike or two. \r\n\r\nHot water. Air conditioning. \r\n\r\nResponds quickly to WhatsApp messages. +53 5 3642623","location":{"latitude":22.62072524,"longitude":-83.70467529},"category":{"name":"Hotel"}},{"id":154241,"name":"Roadside","date_verified":"2021-04-08T00:00:00.000Z","description":"When you get to Siboney take the road out of town west. Soon it will be a dirt road rolling along the coast. Lots of spots to camp with some in the mangroves. Only issue I had was the crabs came out at night and made a bunch of noise. Still a great spot. Camping off my motorcycle.","location":{"latitude":19.95645,"longitude":-75.73389},"category":{"name":"Wild Camping"}},{"id":165014,"name":"Cotilla Spring Water","date_verified":"2021-12-23T00:00:00.000Z","description":"Natural flowing spring. This was a welcome site as drinking water was hard to find when I was in Cuba. \r\n\r\nLooked clean. Had no odors. So I took a chance and filled up two 1.5 liter bottles and suffered no ill effects. \r\n\r\nEven if you don't drink it, it's a nice place to stop for a bit.","location":{"latitude":20.148506,"longitude":-74.480735},"category":{"name":"Water"}},{"id":175416,"name":"Road end for tent near ocean","date_verified":"2022-01-29T00:00:00.000Z","description":"Quait place, for tent with car, ocean voice, no peoples, little basura","location":{"latitude":22.549606952406265,"longitude":-78.38471854568442},"category":{"name":"Wild Camping"}},{"id":175417,"name":"Near road and ocean","date_verified":"2022-01-31T00:00:00.000Z","description":"Quait place for o e night on the beach. Street light lighting all night, nobody ask us.","location":{"latitude":22.66710350044595,"longitude":-79.08360066091554},"category":{"name":"Wild Camping"}},{"id":175418,"name":"Playa iOverlander","date_verified":"2022-02-02T00:00:00.000Z","description":"Quait windy place, for one or two nights. Possible to buy tunas in Boca de Canasi, up from Puerto Libri, 150cup per kg.","location":{"latitude":23.14672827458438,"longitude":-81.86140332304679},"category":{"name":"Wild Camping"}},{"id":176343,"name":"Casa leo","date_verified":"2022-05-17T00:00:00.000Z","description":"Beautiful and cozy place where you can get in touch with nature and explore a beautiful valley and mountains. \r\n\r\n———————————————————————————-\r\n\r\nLugar hermoso y acojedor en el cual puede ponerse en contacto con la naturaleza y axeder a un hermoso valle y montañas","location":{"latitude":22.61177,"longitude":-83.71366},"category":{"name":"Hostel"}},{"id":202984,"name":"Hostal Finca Aurora ","date_verified":"2022-11-19T00:00:00.000Z","description":"Havana, Artemisa Province, Cuba\r\n\r\n3 queen beds, 1 double bed, Sleeps 2\r\nIs listed on Airbnb as well $25 a night \r\nAsk for David or Maday ","location":{"latitude":23.03293453819259,"longitude":-82.47776882509676},"category":{"name":"Hostel"}},{"id":227599,"name":"Comida Criolla","date_verified":"2023-03-16T00:00:00.000Z","description":"First of all, Comida Criolla has gotten very good food for a fair price. I befriended the owner a little bit the past day. When i missed my bus this evening I told him that i was going to have dinner and look for a spot to camp in the wild. without hesitation he told me that I could set up camp next to his place. i dont know if this has happened before.","location":{"latitude":22.285306666666663,"longitude":-81.205805},"category":{"name":"Informal Campsite"}},{"id":238736,"name":"Trinidad Colonial","date_verified":"2022-05-09T00:00:00.000Z","description":"a well know Restaurant in a colonial building, the prices are aroun 1,80$ and 2,50$...we try several dishes and the one we liked the most was Ropa Vieja, there are chicken, pork, beef and Salmon (it wasnt that good the salmon).\ndrinks are a bit more \"expensive\" juices 1$, cocktails 2,50$\nhigh recommended!","location":{"latitude":21.802360704168677,"longitude":-79.98433414846659},"category":{"name":"Restaurant"}},{"id":238737,"name":"Alicia Marin local house","date_verified":"2022-05-11T00:00:00.000Z","description":"We stayed at a particular house, close to the city center, the family was so nice and gave us good advices, we negotiated the price and get on apartment for 5 person, small but enough for us, breakfast was big and good too!\nhostalaliciaymiguel@gmail.com\n+53 52252660\n+53 55489093\n\ntap water was potable.\n\nin the pictures you will find the business card with more info!","location":{"latitude":21.805965383537114,"longitude":-79.98864898458123},"category":{"name":"Hostel"}},{"id":238738,"name":"La Perla","date_verified":"2022-05-13T00:00:00.000Z","description":"Goverment restaurant, the menu with main and dessert was between 1,60$ and 3$ there was several meat options and extra portion to add if want it.\nthe food was good!","location":{"latitude":21.37922869529575,"longitude":-77.91807482019067},"category":{"name":"Restaurant"}},{"id":238739,"name":"Martha casa particular","date_verified":"2022-05-14T00:00:00.000Z","description":"Local house that rent rooms near the train station, they only have 2 rooms, we stayed in one for 10$ (after negotiated).\nNice and clean with fan and air conditioning, the family was friendly.\nPhoto of the street attached, in front of Hotel plaza.","location":{"latitude":21.388510270044208,"longitude":-77.91560743935406},"category":{"name":"Hostel"}},{"id":238740,"name":"Local house","date_verified":"2022-05-17T00:00:00.000Z","description":"Casa Particular in a colonial house close to the center. We rent a room for four,it was low season so we got a good deal 10$ for the room but expect to be between 10 and 20$.\nto eat in the house was overpriced, we eat outsite but it was difficult to find restaurants open and we good price!\nfind attached a picture of the house","location":{"latitude":20.025486079975963,"longitude":-75.82803930155933},"category":{"name":"Hostel"}},{"id":238741,"name":"Cañón de Yurumí","date_verified":"2022-05-21T00:00:00.000Z","description":"The Canyon is a protected area around 30km from Baracoa, there area  few hikes and a short boat ride in the river, the hikes were around 250 (2,50$) and if you want only the boat will be 50 (0,50$).\r\nThere is a waterfall too.\r\nWe enjoyed the journey and the swing in the river, and a nice day hiking.\r\nWe took a \"Maquina\" in the local terminal there were more locals taking it to go to Maisí, it was around 150 each.","location":{"latitude":20.30072,"longitude":-74.29601},"category":{"name":"Tourist Attraction"}},{"id":238742,"name":"Casa particular la Moderna (Ysabel)","date_verified":"2022-05-21T00:00:00.000Z","description":"We had a nice stay with Ysabel and her husband, they were very helpful and the house is central, they have at least 4 rooms to rent, we stayed in one with 2 double beds (we were 4), with air conditioning and private toilet, there was a share living room and balcony only for the guest and a big terrace upstairs.\nWe came for a couple of days and stay 5 nights...Highly recommended!\nthere are some more contact detais attached in the pictures but in case you don't get much internet their number is 21643515\n54187374 (mobile)","location":{"latitude":20.345390383154154,"longitude":-74.49757679365575},"category":{"name":"Hostel"}},{"id":238743,"name":"La casona","date_verified":"2022-05-24T00:00:00.000Z","description":"Restaurant of the state in a very nice building and close to the terminal if you are going to viñales with the Camion is a good option...prices around 0.65$ and 2,50$ dolars, chicken, pork and beef, salad, vianda and rice.\n","location":{"latitude":22.415256863459945,"longitude":-83.69383944198489},"category":{"name":"Restaurant"}},{"id":238744,"name":"Campismo Dos Hermanas","date_verified":"2022-05-25T00:00:00.000Z","description":"It is a government \"campsite\" (it's more like little houses).  We didn't ask for the price but in another place we asked and it's around 2$ so it's worth it to ask if you want to stay surrounded by nature and do the hiking around.\r\nWe stopped to have small pizza for 0,25$ and piña colada 0,50$. there was a swimming pool and another restaurant with meals but it wasn't open because low season.\r\nI recommend it!","location":{"latitude":22.62005,"longitude":-83.73693},"category":{"name":"Established Campground"}},{"id":238745,"name":"Casa de Don Tomas","date_verified":"2022-05-26T00:00:00.000Z","description":"Government restaurant, we tryed delicias de Don tomas (kind of paella), chicken, prawns and it was good between 1,50$ and 2$, there was Langosta for 3,5$ that we didn't try but looks good.\nMojito and Cuba libre 0,60$.\nplus Live music...very nice place to eat!","location":{"latitude":22.615006249397993,"longitude":-83.71167512610555},"category":{"name":"Restaurant"}},{"id":238746,"name":"Callejon Hamel","date_verified":"2022-05-29T00:00:00.000Z","description":"Sunday's live music at midday at the callejon...recommended!!","location":{"latitude":23.13874,"longitude":-82.37498},"category":{"name":"Tourist Attraction"}},{"id":238747,"name":"Cafeteria Lluvia de oro","date_verified":"2022-05-30T00:00:00.000Z","description":"Government restaurant, we had chicken with rice 90 cup (0,90$), soup 50, mojito 50, beer 125 500ml (the cheapest I have seen)\nit was tasty and very cheap compare with the touristic restaurants...\nI had being putting this kind of restaurant's through my trip in Cuba in differents cities if you want to eat for less than 2-3 dolars have a look!","location":{"latitude":23.138606138527393,"longitude":-82.35364990308881},"category":{"name":"Restaurant"}},{"id":238748,"name":"Silda guest house","date_verified":"2022-06-01T00:00:00.000Z","description":"They have 4 rooms to rent, we stayed in one for 3 people with privat toilet, very friendly couple, they were offering small breakfast and wifi.\nGood location no far from the Habana vieja and museums.\nin maps.me appears at Silda house\n\ntel: 8621314 / 053875271\nmarlenerlos@nauta.cu\n","location":{"latitude":23.13922363333404,"longitude":-82.36205988563597},"category":{"name":"Hostel"}},{"id":245245,"name":"Casa Raquel","date_verified":"2023-10-04T00:00:00.000Z","description":"Very nice Casa Particular. All Rooms with Aircondition, bathroom with hot water and TV. \r\n1 Night 25$ per room ","location":{"latitude":23.146795107794297,"longitude":-81.26407606075644},"category":{"name":"Hostel"}},{"id":252822,"name":"Etecsa ","date_verified":"2023-10-09T00:00:00.000Z","description":"Here you can buy WIFI Cards. You need your Passport and pay in cash. \r\nYou have a WIFI spot in the park ","location":{"latitude":21.80016,"longitude":-79.9844},"category":{"name":"Wifi"}},{"id":262779,"name":"Juan's casa","date_verified":"2024-01-29T00:00:00.000Z","description":"very basic room but extremely cheap: 150 CUP in 2024. Very kind owners","location":{"latitude":21.14466106,"longitude":-77.44699387},"category":{"name":"Hostel"}},{"id":262780,"name":"Casa Juana y Enrique","date_verified":"2024-02-12T00:00:00.000Z","description":"informal restaurant. very good food and generous portions. dishes for 1500 pesos (Feb 2024) including rice and fried plantain.\r\n\r\nThey allowed me to pitch my tent opposite their house. there is a flat grass area and, if it rains, a concrete elevated platform with roof.\r\n\r\nthey also offer accommodation but not sure about the price.\r\n\r\nNearby natural pool to swim in the river.\r\nPerfect spot to start the Yunque climb early in the morning (I left my bike at the restaurant)","location":{"latitude":20.33719529,"longitude":-74.55494695},"category":{"name":"Informal Campsite"}},{"id":262781,"name":"Hotel Miramar","date_verified":"2024-02-15T00:00:00.000Z","description":"very basic hotel but good and very cheap.\r\nIn Feb 2024: room for 300 pesos and dinner, quite good, for 900 including 2 beers","location":{"latitude":20.70089229,"longitude":-75.54708042},"category":{"name":"Hotel"}},{"id":262782,"name":"Manantiales Del Ocujal","date_verified":"2024-02-16T00:00:00.000Z","description":"cheap accommodation: in Feb 2024 it 250cup for room with 2 double beds. dinner for 500. nice setting, decent food, terrible bathroom ","location":{"latitude":20.766194444444444,"longitude":-76.058825},"category":{"name":"Hotel"}},{"id":270402,"name":"Casa Colonial Los Balcones","date_verified":"2024-04-17T00:00:00.000Z","description":"It is a Casa Particular that invites you to feel at home. It is located in the center and from the many balconies on two sides you can watch the hustle and bustle on the streets. The family is very friendly and helpful. The accommodation is also inexpensive. The owner is a fair taxi driver. He will also take you to the airport, for example. The rooms are clean and well furnished. A good starting point for the city of Havana.","location":{"latitude":23.138372782627087,"longitude":-82.3690635250724},"category":{"name":"Hotel"}}]